stop_id,stop_name,stop_lon,stop_lat
40002,TERMINUS H.-BOURASSA,-73.667207,45.555819
40031,TERMINUS H.-BOURASSA,-73.669931,45.555748
40052,TERMINUS H.-BOURASSA,-73.669931,45.555748
40055,TERMINUS H.-BOURASSA,-73.669931,45.555748
40102,TERMINUS H.-BOURASSA,-73.667289,45.556091
40131,TERMINUS H.-BOURASSA,-73.669931,45.555748
40144,METRO COTE VERTU,-73.682704,45.513238
40151,METRO COTE VERTU,-73.682512,45.513373
40152,TERMINUS H.-BOURASSA,-73.669931,45.555748
40155,TERMINUS H.-BOURASSA,-73.669931,45.555748
40244,METRO COTE-VERTU,-73.682685,45.513244
40251,METRO COTE-VERTU,-73.682513,45.513369
40252,TERMINUS H.-BOURASSA,-73.669931,45.555748
40253,TERMINUS H.-BOURASSA,-73.669931,45.555748
40802,METRO COTE-VERTU,-73.682252,45.513605
40902,METRO COTE VERTU,-73.682257,45.513607
40925,METRO RADISSON,-73.540035,45.589823
40935,MÉTRO RADISSON,-73.539359,45.589521
41004,LANGEAIS/GASCOGNE,-73.710041,45.576805
41005,AMPERE/NOIRMOUTIER,-73.706666,45.559538
41006,METRO CONCORDE,-73.70785,45.561048
41008,AMPERE/NOIRMOUTIER,-73.70632,45.559476
41009,LACASSE/D'AVEIRO,-73.728413,45.631258
41010,LACASSE/DE GAP,-73.731328,45.628949
41011,LACASSE/R.-LAENNEC,-73.733222,45.628009
41012,R-LAENNEC/PRUDENTIEL,-73.729708,45.624966
41013,R-LAENNEC/ALADIN,-73.725757,45.621303
41014,R-LAENNEC/BELLEROSE,-73.724019,45.619695
41015,R-LAENNEC/DE LAUSANNE,-73.724984,45.620593
41016,PRUDENTIEL/ MONTÉVIDEO,-73.721653,45.624658
41017,PRUDENTIEL/GIRONDE,-73.722679,45.626179
41018,CARREFOUR/CORBUSIER,-73.741985,45.572103
41020,A.-GOLDBLOOM/DALE,-73.738238,45.546618
41022,A.-GOLDBLOOM/HOPITAL,-73.736984,45.548421
41028,AVENIR/SOUVENIR,-73.722045,45.561381
41029,4E AV./5E AV.,-73.770549,45.642648
41030,5E AV./12E AV.,-73.770294,45.640354
41031,5E AV./8E AV.,-73.770555,45.641352
41032,4E AV./7E AV.,-73.769792,45.64274
41033,12E AV./PARC-DES-ERABLES,-73.769447,45.640194
41039,12E AV. / 19E RUE,-73.703081,45.566834
41040,12E AV. / 19E RUE,-73.703414,45.56686
41041,12E AV./SOUVENIR,-73.7056,45.569187
41042,12E AV./COTE AZUR,-73.705496,45.568692
41043,12E AV./BOURGES,-73.702064,45.565657
41045,COUSTEAU/S. ROSE,-73.842047,45.567654
41046,COUSTEAU/SEGUIN,-73.844496,45.570184
41047,43E AV./SEGUIN,-73.838313,45.57319
41048,43E AV./FACE AU 987,-73.836651,45.571503
41049,43E AV./FACE AU 990,-73.836714,45.571386
41050,STE.-ROSE/SAURIOL,-73.834243,45.569487
41056,100E AV./SAMSON,-73.75967,45.528575
41057,100E AV./N. DAME,-73.765005,45.535968
41058,100E AV./SAMSON,-73.759795,45.5285
41059,100E AV./4E RUE,-73.761278,45.530182
41060,100E AV./4E RUE,-73.76156,45.530253
41061,100E AV./9E RUE,-73.762783,45.53169
41062,100E AV./9E RUE,-73.763219,45.531914
41063,100E AV./MONTCALM,-73.764216,45.534359
41064,100E AV./MONTCALM,-73.764409,45.534494
41067,BELGRADE/C.-DELAGE,-73.741974,45.614395
41068,TERMINUS BIENVILLE,-73.750143,45.657848
41070,LAURENTIDES/J.-COUTU,-73.748252,45.651085
41071,BELGRADE/LAURENTIDES,-73.740576,45.615278
41072,BELGRADE/GRUYERES,-73.737856,45.616833
41073,BELGRADE/PRUDENTIEL,-73.735705,45.617683
41074,BELGRADE/GRUYERES,-73.737919,45.616608
41076,BELGRADE/O.-CHAUVEAU,-73.748234,45.612204
41077,BELGRADE/O.-CHAUVEAU,-73.74785,45.612205
41078,BELGRADE/RIO,-73.746263,45.612946
41080,BELLEHUMEUR/LAURENTIDES,-73.754474,45.645214
41081,BELLEHUMEUR/FACE AU 7340,-73.755151,45.64739
41082,BELLEHUMEUR/FACE AU 7365,-73.755279,45.647434
41083,BELLEHUMEUR/BROCHU,-73.755815,45.649575
41084,BELLEROSE/VOSGES,-73.724235,45.619218
41085,BELLEROSE/FACE AU 36,-73.738954,45.609175
41086,BELLEROSE/LAURENTIDES,-73.737214,45.610544
41087,BELLEROSE/LAURENTIDES,-73.736983,45.610428
41088,BELLEROSE/FACE AU 39,-73.73907,45.609328
41089,BELLEROSE/MARC,-73.732786,45.612659
41091,BELLEROSE/LORCA,-73.730306,45.61423
41092,BELLEROSE/PALERME,-73.727812,45.615792
41093,BELLEROSE/PALERME,-73.727944,45.615464
41094,BELLEROSE/LAURENTIDES,-73.735564,45.611493
41095,BELLEROSE/RUCHER,-73.725614,45.617704
41096,BELLEROSE/MARC,-73.732775,45.612947
41097,BELLEROSE/LORCA,-73.730384,45.614491
41098,BELLEROSE/RUCHER,-73.725782,45.618018
41099,BELLEROSE/VOSGES,-73.724569,45.619343
41101,BELLEVILLE/S. GERMAIN,-73.65161,45.61114
41102,BELLEVILLE/S.-COTE,-73.653779,45.613359
41104,BELLEVILLE/S.-COTE,-73.654013,45.613332
41105,BELLEVILLE/L.-ABEL,-73.647115,45.607326
41106,BELLEVILLE/L.-ABEL,-73.647343,45.607303
41107,BELLEVILLE/BEAUSOLEIL,-73.64913,45.609155
41108,BELLEVILLE/BEAUSOLEIL,-73.649489,45.609244
41109,BELLEVILLE/S. JOSEPH,-73.650325,45.610224
41110,BELLEVILLE/S. JOSEPH,-73.65062,45.610269
41112,BERARD/FACE AU 58,-73.757574,45.647096
41113,BERARD/BROCHU,-73.758046,45.649246
41114,BERARD/BRINDAMOUR,-73.757119,45.645721
41115,BERARD/FACE AU 57,-73.757381,45.646944
41116,BERARD/TERRASSES,-73.756402,45.643248
41117,BERARD/BRINDAMOUR,-73.757016,45.64564
41121,BERLIER/BERGMAN,-73.745327,45.583524
41123,BERLIER/F.-HUGHES,-73.734822,45.590339
41124,BERLIER/FACE AU 970,-73.737585,45.589155
41125,BERLIER/FACE AU 970,-73.737533,45.58902
41126,BERLIER/INDUSTRIEL,-73.739401,45.588174
41127,BERLIER/INDUSTRIEL,-73.738927,45.588288
41128,BERLIER/FACE AU 1261,-73.741841,45.586383
41129,BERLIER/FACE AU 1705,-73.743948,45.584651
41130,BERNINA/BEDARD,-73.720508,45.597351
41131,BERNINA/BEDARD,-73.720444,45.597558
41132,BERNINA/BOISVERT,-73.719447,45.598072
41133,BERNINA/BOISVERT,-73.719548,45.597865
41134,BERNINA/LUCERNE,-73.718526,45.598677
41140,BLOIS/LEBLANC,-73.683692,45.58875
41144,BLOIS/LEVIS,-73.680928,45.590077
41145,BLOIS/LEVIS,-73.680877,45.590284
41146,BLOIS/LEBLANC,-73.683423,45.588697
41147,B.-BOULOGNE/SOUVENIR,-73.702852,45.570371
41148,B.-BOULOGNE/SOUVENIR,-73.703028,45.570073
41149,B.-D.-BOULOGNE/FACE AU 777,-73.704187,45.571763
41150,B.-D.-BOULOGNE/FACE AU 794,-73.703955,45.571205
41152,B.-D.-BOULOGNE/FACE AU 830,-73.704957,45.572112
41153,B.-D.-BOULOGNE/TOURAINE,-73.70609,45.573577
41154,B.-D.-BOULOGNE/S. MARTIN,-73.710169,45.578132
41155,C.-CHARBONNEAU/SAMSON,-73.781684,45.522206
41156,B.-D.-L'EAU/FACE AU 300,-73.789523,45.518173
41157,B.-D.-L'EAU/LARIVIERE,-73.793975,45.51782
41158,B.-D.-L'EAU/LARIVIERE,-73.794333,45.517711
41159,B.-D.-L'EAU/FABERT,-73.798049,45.518493
41160,B.-D.-L'EAU/FABERT,-73.798395,45.518447
41161,B.-D.-L'EAU/ZEPHYR,-73.800931,45.518764
41162,B.-D.-L'EAU/ZEPHYR,-73.800917,45.518647
41163,B.-D.-L'EAU/CAPRICIEUSE,-73.803466,45.518956
41164,B.-D.-L'EAU/JARDINS S. DOROTHEE,-73.806925,45.519513
41165,B.-D.-L'EAU/CAPRICIEUSE,-73.803543,45.518883
41167,B.-D.-L'EAU/ROSEAUX,-73.780435,45.520715
41174,B.-D.-L'EAU/SAMSON,-73.824866,45.520858
41175,B.-D.-L'EAU/FACE AU 896,-73.827477,45.520725
41176,B.-D-L'EAU/RAPIDES,-73.826519,45.520642
41177,B.-D.-L'EAU/GUIZOT,-73.830651,45.520734
41178,B.-D.-L'EAU/GUIZOT,-73.830907,45.520598
41179,B.-D.-L'EAU/LYNNE,-73.835825,45.521061
41180,B.-D.-L'EAU/FACE AU 125,-73.781815,45.520289
41181,B.-D.-L'EAU/FAUVEL,-73.835687,45.520931
41182,B.-D.-L'EAU/PATRICK,-73.83899,45.521645
41183,B.-D.-L'EAU/DION,-73.838951,45.521537
41184,B.-D.-L'EAU/BIBEAU,-73.840926,45.522071
41185,B.-D.-L'EAU/BIBEAU,-73.840912,45.52199
41186,B.-D.-L'EAU/JUDITH,-73.844784,45.522888
41187,B.-D.-L'EAU/MAROIS,-73.845437,45.522976
41188,B.-D.-L'EAU/JOANIE,-73.848487,45.52347
41189,B.-D.-L'EAU/JOANIE,-73.848153,45.523318
41190,B.-D.-L'EAU/DUPONT,-73.853951,45.523148
41191,B.-D.-L'EAU/ISLEMERE,-73.849973,45.523718
41192,B.-D.-L'EAU/FACE AU 125,-73.781789,45.520217
41193,B.-D.-L'EAU/LAFONTAINE,-73.849614,45.523575
41194,B.-D.-L'EAU/JOLIBOURG,-73.852545,45.523584
41195,B.-D.-L'EAU/FACE AU 1368,-73.858302,45.522891
41196,GARE S. DOROTHEE,-73.861205,45.523392
41197,B.-D.-L'EAU/FACE AU 1368,-73.858377,45.522747
41198,GARE S. DOROTHEE,-73.860922,45.523354
41199,B.-D.-L'EAU/SEIGNEURIE,-73.784102,45.519455
41200,C.-CHARBONNEAU/SAMSON,-73.781402,45.522225
41201,B.-D.-L'EAU/DUPONT,-73.853798,45.523301
41202,B.-D.-L'EAU/DOMAINE,-73.78437,45.519212
41203,B.-D.-L'EAU/MONTREUIL,-73.786915,45.518845
41204,B.-D.-L'EAU/MONTREUIL,-73.7874,45.518619
41205,B.-D.-L'EAU/FACE AU 295,-73.789421,45.518308
41206,RENAISSANCE/M.-A.-FORTIN,-73.800971,45.600748
41208,BROCHU/BERARD,-73.758059,45.649381
41209,BROCHU/BELLEHUMEUR,-73.756033,45.649574
41212,CHIMENE/ LEA,-73.589251,45.67
41213,CHIMENE/ LEA,-73.589392,45.669784
41215,CAROLE/MUGUET,-73.821826,45.530855
41216,CAROLE/MUGUET,-73.822172,45.530926
41218,S.MARTIN/CAROLE,-73.823703,45.532353
41219,CARTIER/J.-J.-JOUBERT,-73.670902,45.572941
41220,CARTIER/EMILE,-73.687512,45.559165
41221,CARTIER/CONRAD,-73.690051,45.558973
41222,CARTIER/CONRAD,-73.689739,45.558728
41223,CARTIER/8E AV.,-73.692431,45.558942
41224,CARTIER/8E AV.,-73.693009,45.558618
41225,CARTIER/15E RUE,-73.697128,45.557549
41226,CARTIER/15E RUE,-73.695977,45.557695
41227,CARTIER/PERRIN,-73.698869,45.55688
41228,CARTIER/PERRIN,-73.699328,45.556402
41229,CARTIER/AMPERE,-73.701924,45.555102
41230,CARTIER/J.-J.-JOUBERT,-73.670712,45.572771
41231,CARTIER/AMPERE,-73.70205,45.554661
41232,CARTIER/LAVAL,-73.706875,45.552411
41233,CARTIER/LAVAL,-73.706461,45.552466
41234,CARTIER/B.PASTEUR,-73.708878,45.551481
41235,CARTIER/B.PASTEUR,-73.708929,45.551283
41236,CARTIER/MARIALE,-73.711384,45.550289
41237,CARTIER/MARIALE,-73.711422,45.550091
41238,CARTIER/DUSSAULT,-73.712675,45.549665
41239,CARTIER /DUSSAULT,-73.712815,45.549413
41240,CARTIER/GIROUX,-73.714273,45.548897
41241,S. HUBERT/CARTIER,-73.680109,45.5611
41242,CARTIER/GIROUX,-73.714438,45.548528
41243,CARTIER/VERDI,-73.715551,45.548022
41244,CARTIER/VERDI,-73.715703,45.547779
41245,CARTIER/CLERMONT,-73.717276,45.547173
41246,CARTIER/CLERMONT,-73.717391,45.54693
41247,CARTIER/A.-FRAPPIER,-73.721482,45.54514
41248,CARTIER/MICRO,-73.720203,45.545566
41249,CARTIER/58E AV.,-73.723335,45.544228
41250,CARTIER/58E AV.,-73.723411,45.544003
41251,CARTIER/D. JOHNSON,-73.724971,45.543415
41252,CARTIER/D. JOHNSON,-73.725175,45.543144
41253,CARTIER/64E AV.,-73.728179,45.541906
41254,CARTIER/63E AV.,-73.727066,45.542169
41255,CARTIER/66E AV.,-73.729943,45.541056
41256,CARTIER/66E AV.,-73.730018,45.54075
41257,CARTIER/68E AV.,-73.731412,45.540352
41258,CARTIER/67E AV.,-73.731028,45.540262
41259,CARTIER/70E AV.,-73.733034,45.539277
41260,CARTIER/CHOMEDEY,-73.733598,45.539312
41262,CARTIER/CHOMEDEY,-73.734428,45.538807
41263,CARTIER/73E AV.,-73.73471,45.538959
41267,CARTIER/BAYEUX,-73.68854,45.559129
41268,DAGENAIS/CORBUSIER,-73.760385,45.591841
41269,CHAMPAGNE/PRINCIPALE,-73.796675,45.537078
41270,CHAMPAGNE/S. MARTIN,-73.799222,45.539222
41271,CHAMPAGNE/FACE AU 980,-73.798425,45.538729
41272,CHARTRAND/DÉRY,-73.576465,45.667472
41273,CHARTRAND/MONTY,-73.578158,45.66649
41274,CHATEAUX/CHOMEDEY,-73.74808,45.553949
41275,CHATEAUX/FACE AU 3280,-73.745715,45.554854
41276,CHATEAUX/FACE AU 3275,-73.745958,45.554934
41277,CHATEAUX/D. JOHNSON,-73.743628,45.556035
41278,CHATEAUX/D. JOHNSON,-73.743773,45.556145
41279,PL.CHENIER/VANIER,-73.659887,45.614006
41280,PL.CHENIER/VANIER,-73.659105,45.613982
41281,CHENIER/BELLEVILLE,-73.656378,45.615237
41282,CHENIER/MGR-BOURGET,-73.657031,45.614822
41283,CHOMEDEY/CARTIER,-73.733223,45.538593
41284,CHOMEDEY/MONOD,-73.741673,45.547169
41285,CHOMEDEY/FACE AU 1085,-73.742395,45.548418
41286,CHOMEDEY/CARDINAL,-73.743654,45.549162
41287,CHOMEDEY/SOUVENIR,-73.745096,45.550932
41288,CHOMEDEY/SOUVENIR,-73.745569,45.550886
41289,CHOMEDEY/CHATEAUX,-73.748232,45.553454
41290,CHOMEDEY/CHATEAUX,-73.74895,45.55365
41291,CHOMEDEY/CARDINAL,-73.74351,45.549499
41292,CHOMEDEY/S. MARTIN,-73.750168,45.555179
41293,CHOMEDEY/CARTIER,-73.73434,45.53914
41294,CHOMEDEY/S. MARTIN,-73.751805,45.556235
41295,CHOMEDEY/FACE AU 2911,-73.767588,45.57039
41296,CHOMEDEY/FACE AU 2911,-73.767217,45.570526
41297,CHOMEDEY/7E RUE,-73.736264,45.541577
41298,CHOMEDEY/FACE AU 573,-73.737046,45.541884
41299,CHOMEDEY/70E AV.,-73.737441,45.542771
41300,CHOMEDEY/PERRON,-73.738245,45.54307
41301,CHOMEDEY/N. DAME,-73.739357,45.54469
41302,CHOMEDEY/N. DAME,-73.739805,45.544653
41303,CHOMEDEY/MONOD,-73.74116,45.547152
41304,CHRISTIANE/FRIDOLIN,-73.808937,45.583
41305,CHRISTIANE/FABIOLA,-73.805659,45.583378
41306,CHRISTIANE/FABIOLA,-73.805377,45.583505
41307,CHRISTIANE/FLEURY,-73.803172,45.583304
41308,CHRISTIANE/BERNADETTE,-73.811063,45.582788
41309,CHRISTIANE/BERNADETTE,-73.810692,45.582879
41310,CHRISTIANE/FRIDOLIN,-73.809167,45.582811
41311,CHRISTIANE/GILLES,-73.812991,45.583862
41312,CLARENDON/SOUVENIR,-73.778442,45.532722
41313,CLARENDON/N. DAME,-73.778513,45.532359
41314,CLEROUX/FAVREAU,-73.779228,45.558853
41315,CLEROUX/GINGRAS,-73.774547,45.560385
41316,CLEROUX/GENEST,-73.776977,45.559507
41317,CLEROUX/GENEST,-73.776888,45.559696
41318,CLEROUX/GINGRAS,-73.774675,45.560196
41319,CLEROUX/FAVREAU,-73.779079,45.559049
41320,CLEROUX/C. LABELLE,-73.77282,45.560704
41322,METRO CONCORDE,-73.708571,45.561875
41323,CONCORDE/ROANNE,-73.70623,45.562734
41324,CONCORDE/ROANNE,-73.706551,45.562886
41325,CONCORDE/CLUNY,-73.70458,45.563555
41326,CONCORDE/CLUNY,-73.704466,45.563934
41327,CONCORDE/12E AV.,-73.701448,45.565123
41328,CONCORDE/12E AV.,-73.701359,45.565496
41331,CONCORDE/15E RUE,-73.698455,45.566731
41333,CONCORDE/16E RUE,-73.69951,45.566482
41334,CONCORDE/6E AV.,-73.69678,45.567681
41335,CONCORDE/6E AV.,-73.696858,45.567969
41336,CONCORDE/BAZIN,-73.695336,45.568485
41337,CONCORDE/ETOILE,-73.695132,45.568926
41338,CONCORDE/QUINTAL,-73.693788,45.569315
41339,CONCORDE/LAURENTIDES,-73.692151,45.570209
41340,CONCORDE/SAINT-LUC,-73.692869,45.570154
41341,CONCORDE/S. HUBERT,-73.691052,45.570913
41342,CONCORDE/AVENIR,-73.716931,45.55718
41343,CONCORDE/S. HUBERT,-73.691066,45.57129
41344,CONCORDE/JUBINVILLE,-73.689108,45.572041
41345,CONCORDE/JUBINVILLE,-73.689314,45.572283
41346,CONCORDE/GOINEAU,-73.686583,45.573411
41347,CONCORDE/ALEXANDRE,-73.687191,45.573429
41348,CONCORDE/NORMANDIE,-73.684664,45.574526
41349,CONCORDE/NORMANDIE,-73.684852,45.574944
41350,CONCORDE/LORRAINE,-73.683239,45.575524
41351,CONCOR/FACE AU 1395,-73.716318,45.557874
41352,CONCORDE/BRETAGNE,-73.682762,45.576582
41353,CONCORDE/ALOUETTES,-73.681449,45.576894
41354,CONCORDE/ALOUETTES,-73.681656,45.577416
41355,CONCORDE/N.-D.-DE-FATIMA,-73.679805,45.578306
41356,CONCORDE/N.-D.-DE-FATIMA,-73.680391,45.578398
41357,CONCORDE/ LOURDES,-73.678923,45.580102
41358,CONCORDE/J.-J.-JOUBERT,-73.67858,45.580661
41359,CONCORDE/GARDEUR,-73.676569,45.581446
41360,CONCORDE/DEAUVILLE,-73.715154,45.558146
41361,CONCORDE/AUT. 19 S.,-73.675318,45.583014
41362,CONCORDE/AUT. 19 N.,-73.675168,45.584157
41363,CONCORDE/GRAND-PRE,-73.673892,45.586026
41364,CONCORDE/GRAND-PRE,-73.67434,45.585876
41365,CONCORDE/ASSOMPTION,-73.672807,45.587499
41366,CONCORDE/ASSOMPTION,-73.672898,45.587849
41367,CONCORDE/CHAMPLAIN,-73.670561,45.59003
41368,CONCORDE/CHAMPLAIN,-73.671364,45.589514
41369,CONCORDE/CALLIERES,-73.669858,45.591075
41370,CONCORDE/DEAUVILLE,-73.714759,45.558705
41371,CONCORDE/FACE AU 2900,-73.670089,45.5913
41372,CONCORDE/CALLIERES,-73.667675,45.592683
41373,C. ACHAT DUVERNAY,-73.666416,45.593141
41374,C. ACHAT DUVERNAY,-73.667416,45.593094
41376,CONCORDE/AUTEUIL,-73.664328,45.593572
41377,CONCORDE/JOLY,-73.662287,45.594209
41378,CONCORDE/JOLY,-73.662728,45.594253
41379,CONCORDE/BUDAPEST,-73.661023,45.595158
41380,CONCORDE/LAVAL,-73.712252,45.55969
41381,CONCORDE/BEAUGRAND,-73.661027,45.595578
41382,CONCORDE/LESAGE,-73.659413,45.596765
41383,CONCORDE/LESAGE,-73.659762,45.596849
41384,DE LA CONCORDE/JACQUES-BRODEUR,-73.65748,45.598716
41385,CONCORDE/S. SYLVAIN,-73.657985,45.59866
41386,CONCORDE/MONDOR,-73.65576,45.600463
41387,CONCORDE/PARC,-73.655991,45.600677
41388,CONCORDE/FACE AU 4100,-73.654456,45.601625
41389,CONCORDE/R.-DE-LIMA,-73.654188,45.602066
41390,CONCORDE/VANIER,-73.650706,45.603645
41391,CONCORDE/LAVAL,-73.712662,45.559797
41392,CONCORDE/VANIER,-73.650591,45.604033
41393,CONCORDE/LEVESQUE,-73.648602,45.603307
41394,CONCORDE/LEVESQUE,-73.648445,45.603636
41395,METRO CONCORDE,-73.708761,45.561451
41409,C. LABELLE/80E AV.,-73.740337,45.537309
41410,C. LABELLE/SAMSON,-73.7435,45.537294
41411,C. LABELLE/SAMSON,-73.744858,45.537615
41412,C. LABELLE/PERRON,-73.745605,45.538441
41413,C. LABELLE/PERRON,-73.746028,45.538575
41414,C. LABELLE/N. DAME,-73.748048,45.540812
41415,C. LABELLE/N. DAME,-73.749204,45.54152
41416,C. LABELLE/FACE AU 970,-73.750478,45.543065
41417,LABELLE/C.ENTREPOT,-73.752497,45.544905
41418,C. LABELLE/FACE AU 986,-73.75094,45.543208
41419,C. LABELLE/FACE AU 41,-73.730018,45.534334
41420,C. LABELLE/FACE AU 1200,-73.753074,45.545156
41421,C. LABELLE/MARIE-ANTOINETTE,-73.75404,45.546305
41422,C. LABELLE/M.-ANTOINETTE,-73.75445,45.546394
41423,C. LABELLE/LORANGER,-73.758785,45.550551
41424,C. LABELLE/SOUVENIR,-73.756792,45.548819
41425,C. LABELLE/SOUVENIR,-73.757421,45.549078
41426,C. LABELLE/S. MARTIN,-73.75889,45.551109
41427,C. LABELLE/S. MARTIN,-73.760715,45.552427
41428,C. LABELLE/S. MARTIN,-73.760652,45.552796
41429,C. LABELLE/FACE AU 1830,-73.761679,45.553226
41430,C. LABELLE/ALBERT,-73.763589,45.55458
41431,C.LABELLE/LEVESQUE,-73.730908,45.536015
41432,C. LABELLE/MAYO,-73.763682,45.554265
41433,C. LABELLE/ACADIA,-73.765136,45.555746
41434,CURE LABELLE/ACADIA,-73.765705,45.555783
41435,C. LABELLE/CARREFOUR,-73.766923,45.557362
41436,C. LABELLE/L.-PAYETTE,-73.767244,45.557172
41437,C-LABELLE/ ADONIS,-73.768378,45.55869
41438,C. LABELLE/ ADONIS,-73.768659,45.558456
41439,C. LABELLE/JAGUIN,-73.771771,45.561112
41440,C. LABELLE/CLEROUX,-73.773143,45.561253
41441,C. LABELLE/FACE AU 2539,-73.77385,45.56189
41442,C.LABELLE/LEVESQUE,-73.732603,45.5372
41443,C. LABELLE/FACE AU 2914,-73.779677,45.566645
41444,C. LABELLE/S. ELZEAR,-73.781391,45.568728
41445,C. LABELLE/S. ELZEAR,-73.782097,45.568828
41446,C. LABELLE/EDITH,-73.786762,45.574258
41447,C. LABELLE/FACE AU 289,-73.78708,45.573978
41448,C. LABELLE/ERICKA,-73.787375,45.576506
41449,C. LABELLE/FACE AU 405,-73.787993,45.577098
41450,C. LABELLE/DAGENAIS,-73.788504,45.579978
41451,C. LABELLE/DAGENAIS,-73.788583,45.578912
41452,C. LABELLE/GABRIEL,-73.789268,45.583232
41453,C. LABELLE/GABRIEL,-73.789653,45.583366
41454,C. LABELLE/FACE AU 480,-73.786712,45.592254
41455,C. LABELLE/Y.-BERGER,-73.786859,45.591254
41456,C. LABELLE/CANARDIERE,-73.787654,45.595703
41457,C. LABELLE/DRAPEAU,-73.787993,45.595417
41458,C. LABELLE/FACE AU 289,-73.788293,45.598036
41459,C. LABELLE/FACE AU 285,-73.788755,45.598215
41460,CARTIER/73E AV.,-73.734055,45.538263
41461,C. LABELLE/77E AV.,-73.738479,45.53799
41462,C. LABELLE/75E AV.,-73.736961,45.538217
41463,C. LABELLE/80E AV.,-73.741704,45.537178
41465,DAGENAIS/FELIX,-73.804404,45.578972
41466,DAGENAIS/HUGUES,-73.809606,45.577008
41467,DAGENAIS/FRIDOLIN,-73.806941,45.578794
41468,DAGENAIS/MONTROUGEAU,-73.810955,45.577137
41469,DAGENAIS/FRIDOLIN,-73.806401,45.578481
41470,DAGENAIS/INGRID,-73.813724,45.575008
41472,DAGENAIS/LUCE,-73.812704,45.576016
41474,DAGENAIS/LISANE,-73.815591,45.574416
41475,DAGENAIS/LISANE,-73.815599,45.57407
41476,DAGENAIS/JACQUES,-73.817635,45.573402
41477,DAGENAIS/C. LABELLE,-73.788887,45.579376
41478,DAGENAIS/JACQUES,-73.817736,45.573006
41479,DAGENAIS/MARCELLIN,-73.820714,45.571819
41480,DAGENAIS/JUSTIN,-73.820763,45.57136
41481,DAGENAIS/OVIDE,-73.826779,45.566007
41483,DAGENAIS/OVIDE,-73.826649,45.565647
41487,DAGENAIS/COBLENCE,-73.725825,45.609614
41488,DAGENAIS/COBLENCE,-73.725977,45.609227
41489,DAGENAIS/FACE AU 94,-73.729102,45.608437
41490,DAGENAIS/GRENADE,-73.729062,45.607979
41492,DAGENAIS/PARADIS,-73.731202,45.606844
41493,DAGENAIS/GILBERT,-73.792653,45.578787
41494,DAGENAIS/ROSSIGNOLS,-73.769227,45.586178
41495,DAGENAIS/ROSSIGNOLS,-73.769152,45.586646
41497,DAGENAIS/GILBERT,-73.792347,45.578977
41498,DAGENAIS/ELYSE,-73.795088,45.578772
41499,DAGENAIS/ELYSE,-73.794794,45.578952
41500,DAGENAIS/FRONTENAC,-73.801355,45.579061
41501,DAGENAIS/FLEURY,-73.80305,45.579669
41502,D. JOHNSON/CHENONCEAU,-73.751115,45.56317
41504,D. JOHNSON/FACE AU 2323,-73.751266,45.563841
41505,DANIEL-JOHNSON,-73.753279,45.56508
41506,D. JOHNSON/E.-MONTPETIT,-73.752239,45.564703
41508,D. JOHNSON/FACE AU CENTROPOLIS,-73.746745,45.559357
41509,D. JOHNSON/FACE AU CENTROPOLIS,-73.746941,45.56006
41510,D. JOHNSON/FACE AU 2540,-73.754717,45.566873
41511,D. JOHNSON/FACE AU 2540,-73.755941,45.567421
41512,ARGENTEUIL/B.PASTEUR,-73.712825,45.555478
41513,ARGENTEUIL/LAVAL,-73.710421,45.556517
41514,ARGENTEUIL/GIROUX,-73.717924,45.552481
41515,ARGENTEUIL/MONTMORENCY,-73.716659,45.55314
41516,ARGENTEUIL/MONTMORENCY,-73.716711,45.553302
41517,ARGENTEUIL/DESMARTEAU,-73.714167,45.554711
41518,ARGENTEUIL/DESMARTEAU,-73.714065,45.5549
41519,ARGENTEUIL/B.PASTEUR,-73.712889,45.555316
41529,RENAISSANCE/HENRI-ANGERS,-73.791349,45.601628
41530,RENAISSANCE /A.-PLAMONDON,-73.793679,45.601118
41531,RENAISSANCE /A.-PLAMONDON,-73.793463,45.601335
41532,RENAISSANCE/C. LABELLE,-73.791745,45.601384
41533,RENAISSANCE/P.-E.-BORDUAS,-73.79755,45.601212
41534,SALABERRY/RANGER,-73.713473,45.527024
41537,J.-DESNOYERS/FACE AU 100,-73.676296,45.559814
41539,S. HUBERT/J.-DESNOYERS,-73.677317,45.558373
41543,DUFFERIN/RUISSEAU,-73.781982,45.625344
41544,DUFFERIN/LAC,-73.78226,45.627044
41545,DUFFERIN/LAC,-73.782478,45.62716
41546,CP DUFFERIN,-73.782833,45.628577
41547,DUFFERIN/S. ROSE,-73.780197,45.619787
41548,DUFFERIN/NAPOLEON,-73.780642,45.621153
41549,DUFFERIN/NAPOLEON,-73.78078,45.620992
41550,DUFFERIN/GIGUERE,-73.780927,45.622188
41551,DUFFERIN/GIGUERE,-73.781133,45.622251
41552,DUFFERIN/SICOTTE,-73.781267,45.623456
41553,DUFFERIN/SICOTTE,-73.781525,45.62368
41554,DUFFERIN/RUISSEAU,-73.781721,45.625118
41555,DAGENAIS/C. LABELLE,-73.789305,45.579483
41556,ECORES/LEVESQUE,-73.674002,45.571786
41557,ECORES/N.-D.-DE-FATIMA,-73.674092,45.571938
41559,EDGAR/FRANCOIS,-73.796734,45.572676
41560,EDGAR/FLORE,-73.798122,45.573428
41561,EDGAR/HUDON,-73.798455,45.573436
41562,EDGAR/FELICIEN,-73.799804,45.574071
41563,EDGAR/FELICIEN,-73.800111,45.57398
41564,EDGAR/FOSTER,-73.802418,45.574064
41565,EDGAR/FOSTER,-73.802622,45.573893
41566,EDGAR/HUGUES,-73.805803,45.573319
41567,EDGAR/HUGUES,-73.805859,45.57311
41568,EDGAR/ISABELLE,-73.80794,45.571692
41569,EDGAR/EDITH,-73.793305,45.571011
41570,EDGAR/ELIE,-73.794744,45.571925
41571,EDGAR/ELIE,-73.795065,45.571933
41572,EDGAR/FRANCOIS,-73.79644,45.572685
41573,EDITH/C. LABELLE,-73.787659,45.574327
41575,EDITH/EUGENE,-73.789229,45.573217
41576,EDITH/EUGENE,-73.789153,45.573433
41577,EDITH/EDGAR,-73.793049,45.571092
41579,ERABLES/PLAINES,-73.865323,45.52196
41580,ERABLES/TILLEULS,-73.876576,45.522121
41581,ERABLES/FACE AU 273,-73.878948,45.522716
41582,ERABLES/FACE AU 274,-73.878744,45.522753
41585,ERABLES/PINS,-73.881397,45.525093
41586,ERABLES/PINS,-73.880936,45.525121
41587,ERABLE/ILE-ROUSSIN,-73.883438,45.525923
41588,ERABLES/BOULEAUX,-73.883027,45.525726
41589,ERABLES/SORBIERS,-73.883129,45.527553
41590,ERABLES/PLAINES,-73.865171,45.522104
41591,ERABLES/SORBIERS,-73.882988,45.527508
41592,ERABLES/ORMES,-73.883126,45.528992
41594,ERABLES/FACE AU 94,-73.869174,45.521624
41595,ERABLES/FACE AU 80,-73.86778,45.521736
41596,ERABLES/PEUPLIERS,-73.871389,45.521625
41597,ERABLES/PEUPLIERS,-73.871069,45.521726
41598,ERABLES/CHENES,-73.873911,45.52177
41599,ERABLES/CHENES,-73.873502,45.521844
41600,ERABLES/TILLEULS,-73.876973,45.522075
41603,S. ELZEAR/MARCHE 440,-73.77128,45.570723
41604,S. ELZEAR/MARCHE 440,-73.771396,45.570382
41605,S. ELZEAR/CHOMEDEY,-73.76949,45.571645
41607,S. ELZEAR/C. LABELLE,-73.780849,45.568981
41608,S. ELZEAR/C. LABELLE,-73.781627,45.568935
41609,FABRIQUE/COLLEGE,-73.647029,45.614547
41610,FABRIQUE/J.-E.-BLANCHARD,-73.64594,45.615161
41611,FABRIQUE/COLLEGE,-73.647592,45.614376
41612,FABRIQUE/DESNOYERS,-73.649167,45.613393
41613,FABRIQUE/DESNOYERS,-73.649679,45.613248
41614,FABRIQUE/CHAMPAGNAT,-73.651202,45.612301
41615,FABRIQUE/BELLEVILLE,-73.652176,45.611922
41616,FABRIQUE/J.-E.-BLANCHARD,-73.646082,45.615197
41617,FAFARD/LEGARE,-73.777227,45.552964
41618,FAFARD/L.-PAYETTE,-73.775527,45.551106
41619,A-GOLDBLOOM/DALE,-73.738192,45.546314
41620,A-GOLDBLOOM/N-DAME,-73.737704,45.545041
41630,FLEURY/CHRISTIANE,-73.80307,45.583466
41631,FLEURY/CHANTAL,-73.803532,45.585912
41632,FLEURY/CHANTAL,-73.803853,45.586046
41633,FLEURY/GILLES,-73.806621,45.588325
41634,F.-HUGHES/SALABERRY,-73.720393,45.577824
41635,F.-HUGHES/LIPPMANN,-73.722361,45.5798
41636,F.-HUGHES/FACE AU 2700,-73.730155,45.586884
41637,F.-HUGHES/FACE AU 2555,-73.728288,45.587806
41638,F.-HUGHES/FACE AU 2555,-73.728416,45.587887
41639,F.-HUGHES/FACE AU 2655,-73.730139,45.589242
41640,F.-HUGHES/FACE AU 2655,-73.730049,45.589125
41641,F.-HUGHES/FACE AU 2750,-73.732649,45.588607
41642,F.-HUGHES/FACE AU 2750,-73.733111,45.58884
41643,F.-HUGHES/BERLIER,-73.734283,45.590259
41644,F.-HUGHES/S. ELZEAR,-73.737717,45.593186
41645,F.-HUGHES/LIPPMANN,-73.722707,45.579917
41646,F.-HUGHES/MUNCK,-73.724459,45.582073
41647,F.-HUGHES/MUNCK,-73.724767,45.582144
41648,F.-HUGHES/FACE AU 2250,-73.726388,45.583797
41649,F.-HUGHES/FACE AU 2250,-73.726117,45.58332
41650,F.-HUGHES/CUNARD,-73.72752,45.584793
41651,F.-HUGHES/CUNARD,-73.727879,45.584873
41652,F-HUGHES/FACE 2525,-73.729629,45.586616
41655,M.-A.-FORTIN/FACE AU 216,-73.784079,45.606388
41656,M.-A.-FORTIN/H.-MERCIER,-73.782734,45.606581
41658,M.-A.-FORTIN/PATRIOTES,-73.780249,45.60692
41660,M.-A.-FORTIN/H.-MERCIER,-73.782568,45.606779
41662,M.-A.-FORTIN/P.-OUIMET,-73.787283,45.606119
41663,M.-A.-FORTIN/C. LABELLE,-73.789421,45.605646
41664,M.-A.-FORTIN/C. LABELLE,-73.789614,45.605826
41665,M.-A.-FORTIN/P.-OUIMET,-73.787487,45.605921
41666,GRENET/SALABERRY,-73.713413,45.527996
41667,GRENET/SERRES,-73.719127,45.531663
41668,GARE BOIS-FRANC,-73.708754,45.524891
41669,GARE BOIS-FRANC,-73.707767,45.524425
41670,GILLES/COLOMBAN,-73.801295,45.589319
41671,GILLES/CAMILLE,-73.799073,45.588488
41672,GILLES/CAMILLE,-73.798715,45.588516
41673,GILLES/GODEFROY,-73.79577,45.586742
41674,GILLES/GODEFROY,-73.795475,45.58659
41675,GILLES/CHRISTIANE,-73.794964,45.584441
41676,GILLES/CHRISTIANE,-73.794707,45.584316
41677,GILLES/GLENN,-73.794098,45.58303
41678,GILLES/GLENN,-73.793739,45.583022
41679,GILLES/CHRISTIANE,-73.813183,45.583745
41680,GILLES/BASILE,-73.814509,45.582652
41681,GILLES/MONTROUGEAU,-73.815736,45.581929
41682,GILLES/FLEURY,-73.806699,45.588522
41683,GILLES/BASILE,-73.814523,45.582868
41684,GILLES/CARMINA,-73.804893,45.58877
41685,GILLES/CARMINA,-73.80474,45.58895
41686,GILLES/COLOMBAN,-73.801525,45.589175
41687,GIROUX/CARTIER,-73.714606,45.548744
41688,GIROUX/4E RUE,-73.715404,45.549831
41689,GIROUX/4E RUE,-73.715724,45.54992
41690,GIROUX/5E RUE,-73.716741,45.551187
41691,GIROUX/5E RUE,-73.716984,45.551223
41692,GIROUX/ARGENTEUIL,-73.717872,45.552337
41694,GRAVEL/P.-PUBLIQUE,-73.820849,45.528033
41695,GRAVEL/GERVAIS,-73.813358,45.520828
41696,GRAVEL/PETUNIAS,-73.820323,45.52771
41697,GRAVEL/SAMSON,-73.817478,45.524955
41698,GRAVEL/ORCHIDEES,-73.819433,45.526642
41699,GRAVEL/ORCHIDEES,-73.81919,45.526606
41700,GRAVEL/SAMSON,-73.817168,45.524425
41701,GRAVEL/SAMSON,-73.816692,45.524157
41702,GRAVEL/MANDEL,-73.815314,45.522586
41703,GRAVEL/MANDEL,-73.815006,45.522479
41704,GRAVEL/B.-D.-L'EAU,-73.813299,45.520564
41705,HARMONIE/M.-VILLENEUVE,-73.594313,45.673028
41706,H.-BOURASSA/F.-LORETTE,-73.659742,45.567262
41707,H.-BOURASSA/F.-LORETTE,-73.660127,45.567496
41708,H.-BOURASSA O./B.-D.-BOULOGNE,-73.679031,45.537638
41709,H.-BOURASSA O./B.-D.-BOULOGNE,-73.678481,45.537792
41710,HARMONIE/CLAIRIERE,-73.591833,45.671078
41711,HARMONIE/CLAIRIERE,-73.592154,45.671123
41712,HARMONIE/M.-VILLENEUVE,-73.594327,45.673244
41713,H.-DE-VILLE/SAMSON,-73.812762,45.526399
41714,H.-DE-VILLE/S. DOROTHEE,-73.812822,45.52801
41715,H.-DE-VILLE/S. DOROTHEE,-73.81322,45.528144
41717,H.-DE-VILLE/PRINCIPALE,-73.815358,45.530423
41722,DES ILES/LEVESQUE,-73.761412,45.526069
41723,DES ILES/PATON,-73.75262,45.523885
41724,DES ILES/CAGEUX,-73.750676,45.526975
41725,DES ILES/CAGEUX,-73.750213,45.526508
41727,DES ILES/LEVESQUE,-73.750482,45.529396
41730,DES ILES/LEVESQUE,-73.761282,45.525647
41731,DES ILES/DUCLOS,-73.759599,45.524364
41732,DES ILES/DUCLOS,-73.760086,45.524453
41733,DES ILES/DU TREMBLAY,-73.757713,45.523369
41734,DES ILES/DU TREMBLAY,-73.758174,45.523323
41735,DES ILES/HAVRE DES ILES,-73.756075,45.523481
41736,DES ILES/HAVRE DES ILES,-73.756022,45.523121
41737,DES ILES/PATON,-73.752212,45.524137
41738,INDUSTRIEL/S. MARTIN,-73.721846,45.572648
41739,INDUSTRIEL/S. ELZEAR,-73.742022,45.589847
41740,INDUSTRIEL/MICHELIN,-73.74439,45.591957
41741,INDUSTRIEL/S. MARTIN,-73.721985,45.572143
41742,INDUSTRIEL/SALABERRY,-73.72384,45.57465
41743,INDUSTRIEL/SALABERRY,-73.724455,45.57464
41744,INDUSTRIEL/LIPPMANN,-73.726848,45.577254
41745,INDUSTRIEL/LIPPMANN,-73.727502,45.577262
41746,INDUSTRIEL/MUNCK,-73.729215,45.579319
41747,INGRID/HYACINTHE,-73.809764,45.572104
41748,INGRID/ISABELLE,-73.809859,45.571775
41749,INGRID/INES,-73.810285,45.573173
41750,INGRID/INES,-73.810575,45.573233
41751,INGRID/DAGENAIS,-73.813429,45.575061
41752,INGRID/DAGENAIS,-73.813441,45.574791
41753,ISABELLE/EDGAR,-73.808063,45.571572
41754,I.-PAVLOV/R.-LAENNEC,-73.715237,45.605764
41755,I.-PAVLOV/R.-LAENNEC,-73.715285,45.605945
41756,I.-PAVLOV/F.-BROUSSAIS,-73.713592,45.606633
41757,I.-PAVLOV/F.-BROUSSAIS,-73.713803,45.606725
41758,I.-PAVLOV/MONETTE,-73.711344,45.607833
41759,JACQUES/JULIE,-73.81726,45.572674
41760,JACQUES/DAGENAIS,-73.817146,45.572936
41761,JACQUES/JOVETTE,-73.815959,45.571508
41762,JACQUES/JOVETTE,-73.815625,45.571419
41763,JACQUES/ISABELLE,-73.81422,45.569776
41764,JACQUES/ISABELLE,-73.813861,45.569678
41765,JACQUES/JULIO,-73.813163,45.568681
41766,JACQUES/JULIO,-73.812906,45.568574
41767,JACQUES/JEANNETTE,-73.813592,45.567438
41769,J.-BERAUD/D. JOHNSON,-73.757445,45.568362
41770,J.-BERAUD/D. JOHNSON,-73.758238,45.568207
41771,J.-BERAUD/CHOMEDEY,-73.760582,45.565277
41772,J.-BERAUD/CHOMEDEY,-73.761069,45.565312
41776,JEANNETTE/JACQUES,-73.813578,45.567205
41777,JEANNETTE/JEANNETTE,-73.811554,45.56497
41778,JEANNETTE/JEANNETTE,-73.811233,45.56488
41779,JEANNETTE/JOSUE,-73.807615,45.563882
41780,JOSUE/JEANNETTE,-73.807398,45.563937
41781,JESSOP/LOUISE,-73.735728,45.574131
41782,JESSOP/TESSIER,-73.73404,45.571957
41783,JOLIBOURG/S. DENIS,-73.854218,45.524973
41784,JOLIBOURG/VAL-ESPOIR,-73.853859,45.524885
41785,JOLIBOURG/VAL-ESPOIR,-73.855277,45.526365
41786,JOLIBOURG/B.-D.-L'EAU,-73.852852,45.523556
41787,JOLIBOURG/VAL-BRILLANT,-73.85761,45.527867
41788,JOLIBOURG/RELAIS,-73.855816,45.526615
41794,LANGEAIS/GASCOGNE,-73.709958,45.576674
41795,LAURENTIDES/TOURANGEAU,-73.686613,45.565287
41796,LAURENTIDES/MEUNIER,-73.688557,45.567343
41797,LAURENTIDES/MEUNIER,-73.688476,45.566976
41798,LAURENTIDES/PROULX,-73.689981,45.568638
41799,LAURENTIDES/PROULX,-73.690622,45.568907
41800,LAURENTIDES/CONCORDE,-73.691716,45.570201
41801,LAURENTIDES/CONCORDE,-73.692524,45.570631
41802,LAURENTIDES/S. FLORENT,-73.69434,45.572586
41803,LAURENTIDES/19E RUE,-73.694298,45.57223
41804,LAURENTIDES/SOUVENIR,-73.695841,45.57391
41806,LAURENTIDES/SOUVENIR,-73.696534,45.574197
41807,LAURENTIDES/GIANCHETTI,-73.697807,45.57555
41808,LAURENTIDES/GIANCHETTI,-73.697793,45.575229
41809,LAURENTIDES/NORMONT,-73.700584,45.577941
41810,LAURENTIDES/NORMONT,-73.70021,45.57733
41811,LAURENTIDES/S MICHEL,-73.701727,45.578921
41812,LAURENTIDES/S MICHEL,-73.702086,45.578839
41813,LAURENTIDES/S.MARTIN,-73.704979,45.581731
41814,LAURENTIDES/S.MARTIN,-73.706124,45.582737
41815,LAURENTIDES/S.MARTIN,-73.706173,45.582161
41816,DES LAU/5PL LAVAL,-73.704167,45.58041
41817,LAURENTIDES/RENAUD,-73.707358,45.583806
41819,LAURENTIDES/RENAUD,-73.708037,45.583822
41820,LAURENTIDES/DAKAR,-73.7093,45.585602
41821,LAURENTIDES/DAKAR,-73.709556,45.585529
41822,LAURENTIDES/RICHARD,-73.710392,45.586581
41823,LAURENTIDES/RICHARD,-73.711279,45.587065
41824,LAURENTIDES/SAULNIER,-73.713271,45.589129
41825,LAURENTIDES/GELINAS,-73.713323,45.58887
41826,LAURENTIDES/MORANE,-73.714509,45.590559
41827,LAURENTIDES/LAMER,-73.715073,45.590684
41828,LAURENTIDES/LAVOIE,-73.720038,45.595273
41830,LAURENTIDES/ EDIMBOURG,-73.720243,45.595137
41831,LAURENTIDES/BERNINA,-73.721427,45.596557
41832,LAURENTIDES/FACE AU 1676,-73.721143,45.595973
41833,LAURENTIDES/S. ELZEAR,-73.728779,45.603495
41834,LAURENTIDES/GENEVE,-73.724631,45.599512
41835,LAURENTIDES/S. ELZEAR,-73.728722,45.603129
41836,LAURENTIDES/GENEVE,-73.724604,45.599196
41837,LAURENTIDES/ANVERS,-73.72584,45.600687
41838,LAURENTIDES/ANVERS,-73.726043,45.600595
41839,LAURENTIDES/ROTTERDAM,-73.72343,45.598388
41840,LAURENTIDES/ROTTERDAM,-73.723407,45.598101
41841,LAURENTIDES/PISE,-73.730151,45.604692
41842,LAURENTIDES/LEVESQUE,-73.682041,45.56156
41843,LAURENTIDES/PISE,-73.730382,45.604602
41844,LAURENTIDES/DAGENAIS,-73.73176,45.606183
41845,LAURENTIDES/DAGENAIS,-73.732518,45.606631
41846,LAURENTIDES/FACE AU 2121,-73.734115,45.608499
41847,LAURENTIDES/FACE AU 2100,-73.733733,45.607795
41848,LAURENTIDES/BELLEROSE,-73.736483,45.61163
41849,LAURENTI/FACE 2215,-73.73761,45.613288
41850,LAURENTIDES/BELLEROSE,-73.736563,45.610999
41851,LAURENTI/FACE AU 2220,-73.73775,45.613108
41852,LAURENTIDES/BELGRADE,-73.740272,45.61581
41853,LAURENTIDES/BELGRADE,-73.740376,45.615586
41854,LAURENTIDES/POUPART,-73.742245,45.617661
41855,LAURENTIDES/POUPART,-73.742694,45.617723
41856,LAURENTIDES/LACASSE,-73.74483,45.62009
41857,LAURENTIDES/LACASSE,-73.744934,45.619868
41858,LAURENTIDES/PROVENCE,-73.746506,45.621638
41859,LAURENTIDES/PROVENCE,-73.746853,45.621754
41860,LAURENTIDES/THIBAULT,-73.748404,45.623431
41861,LAURENTIDES/THIBAULT,-73.748424,45.62319
41862,LAURENTIDES/PRUD'HOMME,-73.751091,45.626028
41863,LAURENTIDES/PRUD'HOMME,-73.751515,45.62627
41864,LAURENTIDES/PIRON,-73.751838,45.628434
41865,LAURENTIDES/GRENON,-73.684249,45.563491
41866,LAURENTIDES/PIRON,-73.7522,45.628586
41867,LAURENTIDES/PERRON,-73.752224,45.62994
41868,LAURENTIDES/S. ROSE,-73.752819,45.630991
41869,LAURENTIDES/SAVARD,-73.752771,45.631684
41870,LAURENTIDES/SAVARD,-73.753093,45.631935
41871,LAURENTIDES/SAND,-73.753527,45.634409
41872,LAURENTIDES/SAND,-73.753822,45.634399
41873,LAURENTI/FACE 6235,-73.754087,45.636198
41874,LAURENTIDES/FACE AU 6200,-73.754291,45.63609
41875,LAURENTIDES/S. SAENS,-73.75436,45.63716
41876,LAURENTIDES/GRENON,-73.684371,45.563286
41877,LAURENTIDES/S. SAENS,-73.754721,45.637484
41878,LAURENTIDES/SABOURIN,-73.754947,45.639166
41879,LAURENTIDES/SABOURIN,-73.755229,45.639291
41880,LAURENTIDES/REAUMUR,-73.755416,45.640766
41881,LAURENTIDES/SELLIER,-73.755737,45.640946
41882,LAURENTIDES/BELLEHUMEUR,-73.754407,45.644575
41883,7010 LAURENTIDES,-73.754978,45.644335
41884,LAURENTIDES/P.-RUPERT,-73.752616,45.645659
41885,LAURENTIDES/P.-RUPERT,-73.752412,45.645983
41886,LAURENTIDES/RIOPELLE,-73.749408,45.648365
41887,LAURENTIDES/TOURANGEAU,-73.685684,45.564779
41888,LAURENTIDES/RIOPELLE,-73.749485,45.648563
41889,LAURENTIDES/BEAUDET,-73.748694,45.6495
41890,LAURENTIDES/BEAUDET,-73.748798,45.649707
41891,LAURENTIDES/J.-COUTU,-73.748434,45.651526
41892,BIENVILLE/BERGERON,-73.748515,45.653263
41893,BIENVILLE/BERGERON,-73.748736,45.653172
41894,LAURENTIEN/GOUIN O.,-73.723096,45.529447
41895,LACHAPELLE/GOUIN,-73.721536,45.53121
41896,GARE BOIS-FRANC,-73.708592,45.52266
41897,GARE BOIS-FRANC,-73.708067,45.522643
41898,M.-LAURIN/POIRIER,-73.700818,45.517859
41899,M.-LAURIN/POIRIER,-73.699498,45.517385
41901,LAUSANNE/MONETTE,-73.720238,45.616832
41902,LAUSANNE/MONETTE,-73.720211,45.616562
41903,LAUSANNE/R.-LAENNEC,-73.72294,45.615918
41906,LAUSANNE/RONCHAMP,-73.720413,45.622285
41907,LAUSANNE/PRUDENTIEL,-73.720773,45.622491
41908,LAUSANNE/ROUBAIX,-73.719396,45.621189
41909,LAUSANNE/ROUBAIX,-73.719075,45.621118
41910,LAUSANNE/LOUVIERE,-73.717689,45.619224
41911,LAUSANNE/LOUVIERE,-73.717605,45.618979
41912,LAVAL/PRES,-73.715978,45.562554
41913,LAVAL/SOUVENIR,-73.716874,45.563937
41914,LAVAL/SOUVENIR,-73.717572,45.564197
41915,LAVAL/TRAIT-CARRE,-73.718577,45.565707
41916,LAVAL/JOLIVET,-73.719788,45.567424
41917,LAVAL/TRAIT-CARRE,-73.719321,45.565877
41918,LAVAL/FACE AU 800,-73.720288,45.56745
41919,LAVAL/FACE AU 1700,-73.719952,45.569934
41920,LAVAL/FACE AU 1700,-73.720425,45.569771
41921,LAVAL/S. MARTIN,-73.720186,45.570848
41922,LAVAL/S. MARTIN,-73.72084,45.571039
41923,LAVAL/ARGENTEUIL,-73.710665,45.556652
41924,LAVAL/R.-CASGRAIN,-73.711054,45.55792
41925,LAVAL/R.-CASGRAIN,-73.711567,45.558072
41928,LAVAL/DUBE,-73.714392,45.5614
41929,LAVAL/DUBE,-73.714833,45.561377
41930,LAVAL/PRES,-73.715487,45.562521
41931,CARREFOUR/CORBUSIER,-73.74128,45.572194
41932,CARREFOUR/CORBUSIER,-73.741972,45.572103
41933,CARREFOUR/BEAUREGARD,-73.764456,45.558223
41934,CARREFOUR/BEAUREGARD,-73.764647,45.557862
41935,CARREFOUR/C. LABELLE,-73.766526,45.557147
41936,CARREFOUR/A.-MURPHY,-73.762321,45.559001
41937,CORBUSIER/SOUVENIR,-73.728676,45.561807
41941,CORBUSIER/A.-DUSQU,-73.734198,45.566715
41942,CORBUSIER/A.-DUSQU,-73.734527,45.567098
41943,CORBUSIER/FACE AU 2577,-73.743507,45.577694
41944,CORBUSIER/CUNARD,-73.743107,45.576433
41945,CORBUSIER/BERLIER,-73.748445,45.582332
41946,CORBUSIER/S. ELZEAR,-73.750339,45.584216
41947,CORBUSIER/FACE AU 2584,-73.743579,45.577251
41948,CORBUSIER/MONTEREY,-73.75176,45.585391
41949,CORBUSIER/BERLIER,-73.747903,45.581346
41950,CORBUSIER/CUNARD,-73.742593,45.575975
41951,CORBUSIER/MICHELIN,-73.753607,45.587088
41952,CORBUSIER/S.MARTIN,-73.731433,45.564352
41953,CORBUSIER/CHATELIER,-73.755983,45.589181
41954,CORBUSIER/MONTEREY,-73.751639,45.584849
41955,CORBUSIER/S. ELZEAR,-73.749618,45.583069
41956,CORBUSIER/DAGENAIS,-73.759872,45.592591
41957,CORBUSIER/SOUVENIR,-73.729082,45.562299
41958,CORBUSIER/S.MARTIN,-73.731026,45.563894
41959,CORBUSIER/CHATELIER,-73.75585,45.588604
41960,CORBUSIER/GUTENBERG,-73.742608,45.574036
41961,CORBUSIER/MICHELIN,-73.753059,45.586126
41962,CORBUSIER/GUTENBERG,-73.742133,45.573915
41963,CORBUSIER/CARREFOUR,-73.741361,45.572968
41964,CORBUSIER/TESSIER,-73.738761,45.570202
41965,CORBUSIER/TESSIER,-73.738171,45.570131
41966,CORBUSIER/FACE AU 1828,-73.736893,45.56856
41967,LEGARE/HURTUBISE,-73.779128,45.554237
41968,LEGARE/LETONDAL,-73.78269,45.557
41969,LEGARE/HURTEAU,-73.780479,45.555332
41970,LEGARE/HURTEAU,-73.780851,45.555421
41971,LEGARE/LETONDAL,-73.782347,45.556919
41972,LEGARE/HURTUBISE,-73.779423,45.554273
41973,LEGARE/CLEROUX,-73.783039,45.557557
41974,LEGARE/FAFARD,-73.777509,45.553027
41975,LESAGE/F.-FOUCAULT,-73.667138,45.603137
41977,LESAGE/TRACY,-73.665288,45.601691
41978,LESAGE/JOLICOEUR,-73.66867,45.605204
41979,LESAGE/F.-FOUCAULT,-73.6676,45.603208
41980,LESAGE/FACE AU 1183,-73.667896,45.607851
41981,LESAGE/JOLICOEUR,-73.668964,45.604898
41982,LESAGE/PARC,-73.667337,45.609597
41983,LESAGE/FACE AU 1202,-73.668191,45.607949
41986,LEVESQUE/SAMSON,-73.759846,45.527828
41987,LEVESQUE/PINSONS,-73.610488,45.648242
41988,LEVESQUE/FACE AU 7312,-73.608103,45.648937
41989,LEVESQUE/FACE AU 7327,-73.608001,45.649126
41990,LEVESQUE/PELICANS,-73.60495,45.650299
41991,LEVESQUE/PELICANS,-73.604809,45.650551
41992,LEVESQUE/HETRES,-73.603155,45.651263
41993,LEVESQUE/HETRES,-73.602976,45.651569
41994,LEVESQUE/HIRONDELLES,-73.599669,45.653327
41995,LEVESQUE/HIRONDELLES,-73.600054,45.653282
41996,LEVESQUE/SAPINS,-73.595965,45.65567
41997,LEVESQUE/87E AV.,-73.744991,45.532639
41998,LEVESQUE/SAPINS,-73.59585,45.655913
41999,LEVESQUE/CRESSON,-73.59394,45.657003
42000,LEVESQUE/CRESSON,-73.593928,45.65721
42001,LEVESQUE/ROGER,-73.592543,45.657931
42002,LEVESQUE/ROGER,-73.592705,45.658023
42003,LEVESQUE/NOISETIERS,-73.590445,45.659384
42004,LEVESQUE/NOISETIERS,-73.590396,45.6596
42005,LEVESQUE/ROSEE,-73.586519,45.662255
42006,LEVESQUE/90E AV.,-73.747085,45.531401
42007,LEVESQUE/ANGELE,-73.586442,45.662507
42008,LEVESQUE/ HARMONIE,-73.584749,45.663174
42009,LEVESQUE/ HARMONIE,-73.584518,45.663363
42010,LEVESQUE/LEA,-73.58199,45.663248
42011,LEVESQUE/ALINE,-73.581631,45.663275
42013,LEVESQUE/STELLA,-73.574755,45.664927
42014,LEVESQUE/EMMA,-73.5696,45.668241
42015,LEVESQUE/EMMA,-73.569574,45.66843
42016,LEVESQUE/DUCHESNEAU,-73.565918,45.669395
42017,LEVESQUE/85E AV.,-73.743444,45.5332
42018,LEVESQUE/DUCHESNEAU,-73.565687,45.669584
42019,LEVESQUE/FACE AU 8920,-73.564468,45.670278
42020,LEVESQUE/FACE AU 8920,-73.564725,45.670215
42021,LEVESQUE/FACE AU 9020,-73.562147,45.672007
42022,LEVESQUE/FACE AU 9020,-73.562378,45.671953
42023,LEVESQUE/FOURNIER,-73.560147,45.673546
42024,LEVESQUE/FOURNIER,-73.560185,45.673654
42025,LEVESQUE/VIVIANE,-73.558595,45.674726
42026,LEVESQUE/VIVIANE,-73.558749,45.67478
42027,LEVESQUE/FACE AU 9310,-73.55667,45.675834
42028,LEVESQUE/85E AV.,-73.743801,45.532938
42029,LEVESQUE/FACE AU 9310,-73.556799,45.675888
42030,LEVESQUE/FACE AU 9410,-73.555093,45.67686
42031,LEVESQUE/FACE AU 9420,-73.555016,45.677004
42032,LEVESQUE/BERTHELOT,-73.552625,45.678105
42033,LEVESQUE/BERTHELOT,-73.552668,45.678193
42034,LEVESQUE/FACE AU 9690,-73.550307,45.679355
42035,LEVESQUE/FACE AU 9680,-73.550423,45.679409
42036,LEVESQUE/FACE AU 9820,-73.548871,45.681533
42037,LEVESQUE/FACE AU 9830,-73.549025,45.68156
42038,LEVESQUE/FACE AU 9900,-73.548513,45.68273
42039,LEVESQUE/83E AV.,-73.740823,45.534159
42040,LEVESQUE/FACE AU 9920,-73.54859,45.683072
42041,LEVESQUE/FACE AU 10060,-73.547873,45.684935
42042,LEVESQUE/FACE AU 10015,-73.548104,45.684746
42043,LEVESQUE/FACE AU 10200,-73.546309,45.687716
42044,LEVESQUE/FACE AU 10200,-73.546399,45.687851
42045,LEVESQUE/FACE AU 10320,-73.543267,45.689364
42046,LEVESQUE/FACE AU 10320,-73.543332,45.68949
42047,LEVESQUE/FACE AU 10580,-73.536517,45.693271
42048,LEVESQUE/FACE AU 10580,-73.536401,45.693523
42049,LEVESQUE/M.-ILES,-73.534373,45.694604
42050,LEVESQUE/83E AV.,-73.740925,45.53397
42051,LEVESQUE/M.-ILES,-73.534475,45.694677
42052,LEVESQUE/80E AV.,-73.738521,45.534742
42053,LEVESQUE/80E AV.,-73.737136,45.535008
42054,LEVESQUE/76E AV.,-73.734797,45.535942
42055,LEVESQUE/SAMSON,-73.760191,45.527728
42056,LEVESQUE/76E AV.,-73.734587,45.535881
42057,C.LABELLE/LEVESQUE,-73.732808,45.536848
42058,C.LABELLE/LEVESQUE,-73.733074,45.536587
42059,LEVESQUE/67E AV.,-73.728818,45.538575
42060,LEVESQUE/67E AV.,-73.72906,45.538206
42061,LEVESQUE/65E AV.,-73.727337,45.539469
42062,LEVESQUE/BELLE-RIVE,-73.727655,45.539108
42063,LEVESQUE/62E AV.,-73.724457,45.539906
42064,LEVESQUE/ AUBADE,-73.753887,45.529452
42065,LEVESQUE/62E AV.,-73.724572,45.539771
42066,LEVESQUE/CARTIER,-73.671846,45.570556
42067,LEVESQUE/CARTIER,-73.672013,45.570745
42068,LEVESQUE/J.-J.-JOUBERT,-73.672048,45.574453
42069,LEVESQUE/HAUTERIVE,-73.670787,45.576245
42070,LEVESQUE/J.-J.-JOUBERT,-73.672,45.574839
42071,LEVESQUE/FACE AU 2100,-73.669907,45.577596
42072,LEVESQUE/HAUTERIVE,-73.670864,45.576398
42073,LEVESQUE/AUT. 19 N.,-73.668721,45.579658
42074,LEVESQUE/AUT. 19 N.,-73.668747,45.579838
42075,LEVESQUE/C.-CLOUTIER,-73.667737,45.58097
42076,LEVESQUE/AUBADE,-73.754143,45.529343
42077,LEVESQUE/C.-CLOUTIER,-73.667573,45.581414
42078,LEVESQUE/FORGES,-73.666296,45.58273
42079,LEVESQUE/FORGES,-73.666156,45.583054
42080,LEVESQUE/JEANNE-BER,-73.665048,45.584045
42081,LEVESQUE/JEANNE-BER,-73.664968,45.584325
42082,LEVESQUE/FONTAINEBLEAU,-73.663868,45.585334
42083,LEVESQUE/MONTROSE,-73.661863,45.587479
42084,LEVESQUE/FONTAINEBLEAU,-73.663767,45.585649
42085,LEVESQUE/ AUTEUIL,-73.660459,45.589631
42086,LEVESQUE/BARRAGE,-73.659245,45.590758
42087,LEVESQUE/ILES,-73.751494,45.529506
42088,LEVESQUE/JOLY,-73.659233,45.591001
42089,LEVESQUE/FACE AU 3434,-73.657622,45.59247
42090,LEVESQUE/LESAGE,-73.656625,45.593596
42091,LEVESQUE/LESAGE,-73.656652,45.593875
42092,LEVESQUE/J.-BRODEUR,-73.654685,45.596478
42093,LEVESQUE/J.-BRODEUR,-73.654647,45.596667
42094,LEVESQUE/MONDOR,-73.653445,45.597568
42095,LEVESQUE/MONDOR,-73.65342,45.597775
42096,LEVESQUE/R.-DE-LIMA,-73.650798,45.599902
42097,LEVESQUE/DES ILES,-73.751622,45.529355
42098,LEVESQUE/R.-DE-LIMA,-73.650759,45.600064
42099,LEVESQUE/CONCORDE,-73.648149,45.60166
42100,LEVESQUE/CONCORDE,-73.648239,45.601741
42101,LEVESQUE/SUZANNE,-73.646449,45.603714
42102,LEVESQUE/SUZANNE,-73.646475,45.603966
42103,LEVESQUE/BELLEVILLE,-73.645518,45.60556
42104,LEVESQUE/FACE AU 4600,-73.645889,45.605281
42105,LEVESQUE/FACE AU 4760,-73.644817,45.607271
42106,LEVESQUE/CHAMPAGNAT,-73.645022,45.607027
42107,LEVESQUE/DESNOYERS,-73.644836,45.609547
42108,LEVESQUE/92E AV.,-73.749206,45.530443
42109,LEVESQUE/DESNOYERS,-73.645042,45.610015
42110,LEVESQUE/S. CESAIRE,-73.644972,45.612426
42111,LEVESQUE/S. CESAIRE,-73.645151,45.612525
42112,LEVESQUE/J.BLANCHARD,-73.645016,45.614776
42113,LEVESQUE/J.BLANCHARD,-73.645194,45.61419
42114,LEVESQUE/S. FRANCOIS,-73.643853,45.616351
42115,LEVESQUE/S. FRANCOIS,-73.644085,45.616495
42116,LEVESQUE/FACE AU 5682,-73.642615,45.618404
42117,LEVESQUE/FACE AU 5699,-73.64282,45.618314
42118,LEVESQUE/FACE AU 6099,-73.640445,45.62233
42119,LEVESQUE/92E AV.,-73.749346,45.530236
42120,LEVESQUE/FACE AU 6099,-73.640689,45.622438
42121,LEVESQUE/MASSON,-73.639273,45.625391
42122,LEVESQUE/MASSON,-73.639746,45.62486
42123,LEVESQUE/LIMOGES,-73.638264,45.627129
42124,LEVESQUE/LIMOGES,-73.638316,45.627417
42125,LEVESQUE/FACE AU 6325,-73.636449,45.629921
42126,LEVESQUE/FACE AU 6321,-73.636552,45.630019
42127,LEVESQUE/LEGRIS,-73.63389,45.632182
42128,LEVESQUE/LEGRIS,-73.634031,45.632272
42129,LEVESQUE/MALEPART,-73.632123,45.633588
42130,LEVESQUE/86E AV.,-73.74752,45.531319
42131,LEVESQUE/MALEPART,-73.632021,45.633903
42132,LEVESQUE/FACE AU 6644,-73.627795,45.636859
42133,LEVESQUE/FACE AU 6644,-73.627949,45.63694
42134,LEVESQUE/R. LORTIE,-73.621071,45.641411
42135,LEVESQUE/R. LORTIE,-73.620982,45.641744
42136,LEVESQUE/S. JEAN,-73.616537,45.644916
42137,LEVESQUE/S. JEAN,-73.616576,45.645069
42138,LEVESQUE/CEPAGES,-73.614154,45.646502
42139,LEVESQUE/CEPAGES,-73.614039,45.646817
42140,LEVESQUE/PINSONS,-73.610539,45.648062
42141,L.-PAYETTE/FERRIER,-73.773635,45.551857
42142,L.-PAYETTE/FAVREAU,-73.770556,45.553538
42143,L.-PAYETTE/FAFARD,-73.775052,45.550999
42144,L.-PAYETTE/GOYER,-73.771262,45.553081
42145,L.-PAYETTE/FERRIER,-73.773711,45.551587
42146,L.-PAYETTE/FAVREAU,-73.770468,45.553871
42147,L.-PAYETTE/BARBE,-73.768237,45.555874
42148,L.-PAYETTE/BARBE,-73.768199,45.556135
42149,L.-PAYETTE/C. LABELLE,-73.767197,45.556506
42150,L.-PAYETTE/GOYER,-73.771145,45.553375
42151,LOUISE/JESSOP,-73.735831,45.574275
42152,LOUISE/ROUEN,-73.731632,45.575229
42153,LOUISE/ROUEN,-73.73139,45.575382
42154,LOUISE/GOYA,-73.729449,45.575474
42155,LUCERNE/TOULOUSE,-73.720172,45.59997
42156,LUCERNE/GENEVE,-73.721021,45.600742
42157,LUCERNE/BERNINA,-73.718731,45.598731
42158,LUCERNE/BEAUCOURT,-73.720619,45.602875
42159,LUCERNE/GENEVE,-73.721316,45.600894
42160,LUCERNE/LUNEBOURG,-73.717984,45.604302
42161,LUCERNE/BEAUCOURT,-73.720581,45.603082
42162,LUCERNE/LUNEBOURG,-73.717895,45.604527
42163,MCNAMARA/LOUISE,-73.728546,45.575586
42164,MCNAMARA/PINE,-73.726835,45.573835
42165,MCNAMARA/PINE,-73.726476,45.57379
42166,MCNAMARA/MAPLE,-73.724752,45.57203
42167,MCNAMARA/MAPLE,-73.724406,45.572004
42168,MCNAMARA/S. MARTIN,-73.72362,45.571033
42170,MONSELET/PIE-IX,-73.637058,45.590013
42175,MIRELLE/CHIMENE,-73.587738,45.670829
42176,CHIMENE/MIRELLE,-73.587623,45.670739
42177,M.-BARBEAU/MIRELLE,-73.588741,45.672016
42178,M.-BARBEAU/LAMBERT,-73.587151,45.672755
42179,M.-BARBEAU/ROXANE,-73.585855,45.673152
42180,M.-BARBEAU/MELISANDE,-73.583904,45.673028
42181,M.-BARBEAU/VERSAILLE,-73.580388,45.673345
42182,M.-BARBEAU/MELISANDE,-73.583096,45.673118
42183,M.-BARBEAU/ROXANE,-73.585599,45.673251
42184,M.-BARBEAU/M. MOULIN,-73.579733,45.673444
42185,M.-BARBEAU/LAMBERT,-73.587036,45.672935
42187,MASSON/VERNER,-73.641514,45.63453
42188,MASSON/FACE AU 1325,-73.641715,45.637851
42189,MASSON/FACE AU 1368,-73.641872,45.639173
42190,MASSON/FACE AU 1355,-73.642129,45.639164
42191,MASSON/FACE AU 1490,-73.642226,45.642178
42192,MASSON/FACE AU 1495,-73.642432,45.642313
42193,MASSON/FACE AU 1540,-73.642473,45.643536
42194,MASSON/FACE AU 1601,-73.642888,45.645264
42196,MASSON/FACE AU 1601,-73.643081,45.645299
42197,MASSON/AUT.25,-73.643251,45.646829
42199,MASSON/AUT.25,-73.643644,45.647083
42201,MASSON/FACE AU 2155,-73.640048,45.659369
42202,MASSON/FACE AU 2185,-73.640198,45.659493
42203,MASSON/FACE AU 2315,-73.636606,45.662746
42204,MASSON/FACE AU 2505,-73.635082,45.664187
42205,MASSON/FACE AU 2315,-73.636811,45.662746
42206,MASSON/FACE AU 2505,-73.635147,45.664403
42208,MASSON/FACE AU 2765,-73.63087,45.668322
42209,MASSON/FACE AU 2765,-73.630973,45.668502
42210,MASSON/FACE AU 3150,-73.628082,45.672798
42211,MASSON/FACE AU 3370,-73.627126,45.675642
42212,MASSON/FACE AU 3135,-73.628505,45.672491
42213,MASSON/FACE AU 3370,-73.627371,45.67593
42214,MASSON/SOISSONS,-73.627042,45.678351
42216,MASSON/SOISSONS,-73.627223,45.678575
42217,MASSON/DURANLEAU,-73.626895,45.681194
42218,MASSON/DURANLEAU,-73.627114,45.68141
42219,MASSON/BEAUMONT,-73.626823,45.683507
42220,MASSON/BEAUMONT,-73.627028,45.683426
42221,MASSON/BERLOIN,-73.626828,45.685702
42222,MASSON/BERLOIN,-73.627034,45.685855
42223,MASSON/M.-ILES,-73.628322,45.687788
42224,MASSON/M.-ILES,-73.628412,45.687689
42229,MASSON/B.-LEFEBVRE,-73.641179,45.632194
42238,MESY/FALAISE,-73.685087,45.58801
42239,BLOIS/FALAISE,-73.684895,45.588163
42240,MESY/F.-SEGUIN,-73.685855,45.58791
42244,MEXICO/VALOIS,-73.719395,45.584719
42245,MEXICO/FACE AU 2272,-73.720719,45.585895
42246,MICHELIN/GUILLET,-73.750768,45.588038
42247,MICHELIN/PEUGEOT,-73.748583,45.589491
42248,MICHELIN/GUILLET,-73.750309,45.588507
42249,MICHELIN/CORBUSIER,-73.752469,45.587278
42250,MICHELIN/BERGAR,-73.746575,45.59045
42251,MICHELIN/F.-HUGHES,-73.739927,45.594414
42252,MICHELIN/PEUGEOT,-73.748671,45.589221
42253,MICHELIN/INDUSTRIEL,-73.74438,45.591697
42254,MICHELIN/FACE AU 955,-73.741858,45.593312
42255,MICHELIN/FACE AU 950,-73.741422,45.593403
42256,MICHELIN/INDUSTRIEL,-73.743723,45.592257
42257,MICHELIN/F.-HUGHES,-73.739479,45.594505
42258,MICHELIN/BERGAR,-73.74655,45.590675
42259,M.-ILES/GARIEPY,-73.535787,45.696367
42260,M.-ILES/VAILLANCOURT,-73.552815,45.698412
42261,M.-ILES/ORMES,-73.684914,45.683671
42262,M.-ILES/SOUART,-73.686775,45.683596
42263,M.-ILES/SOUART,-73.686723,45.683506
42264,M.-ILES/DUMONTIER,-73.689519,45.682736
42265,M.-ILES/DUMONTIER,-73.689506,45.682646
42266,M.-ILES/SAINTE-MARIE,-73.691199,45.682032
42267,M.-ILES/SAINTE-MARIE,-73.691685,45.681671
42268,M.-ILES/FACE AU 3625,-73.692903,45.681138
42269,M.-ILES/FACE AU 3605,-73.693005,45.680985
42270,M.-ILES/FACE AU 3475,-73.695596,45.680278
42271,M.-ILES/TOURVILLE,-73.555744,45.699292
42272,M.-ILES/FACE AU 3475,-73.695749,45.680098
42273,M.-ILES/FACE AU 3375,-73.698662,45.679796
42274,M.-ILES/FACE AU 3400,-73.698559,45.679715
42275,M.-ILES/P.-DES-ILES,-73.700831,45.679595
42276,M.-ILES/P.-DES-ILES,-73.70101,45.679495
42277,M.-ILES/FACE AU 3165,-73.703231,45.679383
42278,M.-ILES/FACE AU 3195,-73.702871,45.679339
42279,M.-ILES/FACE AU 3090,-73.704873,45.67911
42280,M.-ILES/FACE AU 3095,-73.705296,45.678939
42281,M.-ILES/FACE AU 2935,-73.708454,45.679014
42282,M.-ILES/TOURVILLE,-73.555936,45.699184
42283,M.-ILES/FACE AU 3000,-73.7088,45.678923
42284,M.-ILES/FACE AU 2745,-73.71197,45.678684
42285,M.-ILES/FACE AU 2755,-73.711944,45.678603
42286,M.-ILES/FACE AU 2615,-73.715088,45.678453
42287,M.-ILES/FACE AU 2625,-73.714985,45.678363
42288,M.-ILES/FACE AU 2555,-73.716564,45.678261
42289,M.-ILES/FACE AU 2555,-73.716576,45.678189
42290,M.-ILES/FACE AU 809A,-73.719721,45.6783
42291,M.-ILES/FACE AU 809,-73.719721,45.678219
42292,M.-ILES/FACE AU 787,-73.72374,45.678535
42293,M.-ILES/FACE AU 9770,-73.557426,45.699085
42294,M.-ILES/FACE AU 787,-73.723727,45.678463
42295,M.-ILES/DEBIEN,-73.725537,45.678397
42296,M.-ILES/FACE AU 776,-73.725753,45.674788
42297,M.-ILES/DEBIEN,-73.725664,45.67818
42298,M.-ILES/DEBUSSY,-73.729311,45.672288
42299,M.-ILES/DEBUSSY,-73.729483,45.672125
42300,M.-ILES/FACE AU 776,-73.725652,45.675085
42301,M.-ILES/AUTEUIL,-73.731504,45.671681
42302,M.-ILES/AUTEUIL,-73.731553,45.671517
42303,M.-ILES/DELARCOHE,-73.735803,45.668505
42304,M.-ILES/DELAROCHE,-73.735982,45.668289
42305,M.-ILES/BOUVRETTE,-73.738234,45.666826
42306,M.-ILES/FACE AU 9770,-73.557374,45.699004
42307,M.-ILES/BOUVRETTE,-73.73817,45.666763
42308,M.-ILES/DUVAL,-73.740396,45.665193
42309,M.-ILES/DUVAL,-73.740395,45.664941
42310,M.-ILES/COUTU,-73.741772,45.662752
42311,M.-ILES/COUTU,-73.741528,45.662869
42312,M.-ILES/FACE AU 513,-73.744231,45.65876
42313,M.-ILES/FACE AU 513,-73.744141,45.65867
42316,M.-ILES/FACE AU 9660,-73.559955,45.698525
42318,M.-ILES/FACE AU 9660,-73.559929,45.698453
42319,M.-ILES/CONTANT,-73.562266,45.697777
42320,M.-ILES/CONTANT,-73.562278,45.697705
42321,M.-ILES/FACE AU 9440,-73.564974,45.697038
42322,LEVESQUE/GARIEPY,-73.535915,45.696205
42323,M.-ILES/FACE AU 9420,-73.565128,45.696894
42324,M.-ILES/GODARD,-73.567182,45.696542
42325,M.-ILES/GODARD,-73.567144,45.69647
42326,M.-ILES/CANNUEL,-73.568671,45.69619
42327,M.-ILES/CANNUEL,-73.568684,45.696118
42328,M.-ILES/FACE AU 9100,-73.572201,45.695135
42329,M.-ILES/FACE AU 9100,-73.572201,45.695054
42330,M.-ILES/FACE AU 8980,-73.574601,45.694324
42331,M.-ILES/FACE AU 8980,-73.57446,45.694297
42332,M.-ILES/FACE AU 8820,-73.57772,45.69362
42333,M.-ILES/ILE-MATHIEU,-73.539806,45.696429
42334,M.-ILES/FACE AU 8820,-73.577707,45.693557
42335,M.-ILES/FACE AU 8710,-73.580441,45.692898
42336,M.-ILES/FACE AU 8710,-73.580287,45.692862
42337,M.-ILES/M. MOULIN,-73.584099,45.69178
42338,M.-ILES/M. MOULIN,-73.584548,45.691581
42339,M.-ILES/FACE AU 8440,-73.587346,45.69112
42340,M.-ILES/FACE AU 8440,-73.58732,45.69103
42341,M.-ILES/FACE AU 8328,-73.590221,45.690209
42342,M.-ILES/FACE AU 8328,-73.590028,45.690173
42343,M.-ILES/CLAUDE,-73.593852,45.688866
42344,M.-ILES/ILE-MATHIEU,-73.540011,45.696321
42345,M.-ILES/CLAUDE,-73.594083,45.688676
42346,M.-ILES/FACE AU 8000,-73.597278,45.687873
42347,M.-ILES/FACE AU 8000,-73.597278,45.687801
42348,M.-ILES/FACE AU 7880,-73.599255,45.687556
42349,M.-ILES/FACE AU 7870,-73.599486,45.687412
42350,M.-ILES/FACE AU 7630,-73.604096,45.688002
42351,M.-ILES/FACE AU 7680,-73.604276,45.687948
42352,M.-ILES/FACE AU 7470,-73.608297,45.6896
42353,M.-ILES/FACE AU 7470,-73.608297,45.689501
42354,M.-ILES/FACE AU 7370,-73.610353,45.690354
42355,M.-ILES/FACE AU 10325,-73.544262,45.696877
42356,M.-ILES/FACE AU 7380,-73.610353,45.690255
42357,M.-ILES/FACE AU 7280,-73.612255,45.691072
42358,M.-ILES/FACE AU 7280,-73.612332,45.690999
42359,M.-ILES/REAUME,-73.614644,45.691852
42360,M.-ILES/REAUME,-73.614696,45.691771
42361,M.-ILES/FACE AU 7100,-73.617238,45.692011
42362,M.-ILES/FACE AU 7100,-73.617264,45.691921
42363,M.-ILES/VEZINA,-73.620499,45.691738
42364,M.-ILES/VEZINA,-73.62064,45.691648
42365,M.-ILES/DUGUAY,-73.6224,45.691898
42366,M.-ILES/FACE AU 10325,-73.544159,45.696724
42367,M.-ILES/DUGUAY,-73.622618,45.691835
42368,M.-ILES/FACE AU 6810,-73.624479,45.691842
42369,M.-ILES/FACE AU 6820,-73.624428,45.69177
42370,M.-ILES/FACE AU 6700,-73.626633,45.69013
42371,M.-ILES/FACE AU 6700,-73.626517,45.690094
42372,M.-ILES/CHARBONNEAU,-73.62731,45.68859
42373,M.-ILES/CHARBONNEAU,-73.627399,45.688365
42374,M.-ILES/MASSON,-73.628544,45.688226
42375,M.-ILES/MASSON,-73.628965,45.688165
42376,M.-ILES/FACE AU 6410,-73.632803,45.687801
42377,M.-ILES/VAILLANCOURT,-73.546175,45.697038
42378,M.-ILES/FACE AU 6410,-73.632751,45.687711
42379,TERMINUS CONTANT,-73.63605,45.6875
42380,M.-ILES/FACE AU 6300,-73.636037,45.687248
42381,M.-ILES/FACE AU 6196,-73.638784,45.687038
42382,M.-ILES/FACE AU 6190,-73.639297,45.686993
42383,M.-ILES/GUGLIA,-73.640865,45.687522
42384,M.-ILES/GUGLIA,-73.641121,45.687521
42385,M.-ILES/BELIVEAU,-73.643818,45.687572
42386,M.-ILES/BELIVEAU,-73.643804,45.687428
42387,M.-ILES/CHARPENTIER,-73.646292,45.686138
42388,M.-ILES/LECONTE,-73.546573,45.696975
42389,M.-ILES/CHARPENTIER,-73.646099,45.685985
42390,M.-ILES/PANORAMA,-73.652822,45.684654
42391,M.-ILES/PANORAMA,-73.652783,45.684438
42392,M.-ILES/FACE AU 5440,-73.655899,45.683093
42393,M.-ILES/FACE AU 5375,-73.656582,45.682663
42394,M.-ILES/BISSON,-73.658195,45.682532
42395,M.-ILES/BISSON,-73.658581,45.682504
42396,M.-ILES/MAURICE,-73.661664,45.683517
42397,M.-ILES/MAURICE,-73.661857,45.683463
42398,M.-ILES/RONDEAU,-73.669342,45.683713
42399,M.-ILES/VAILLANCOURT,-73.552379,45.698295
42400,M.-ILES/FACE AU 4655,-73.671935,45.68379
42401,M.-ILES/FACE AU 4655,-73.671986,45.683718
42402,M.-ILES/FACE AU 4485,-73.675966,45.683631
42403,M.-ILES/FACE AU 4485,-73.67603,45.683541
42404,M.-ILES/LEVASSEUR,-73.678097,45.683546
42405,M.-ILES/LEVASSEUR,-73.678032,45.683475
42406,M.-ILES/LANCTOT,-73.682578,45.683863
42407,M.-ILES/LANCTOT,-73.682591,45.683791
42408,M.-ILES/ORMES,-73.685017,45.683751
42409,MIRELLE/BEATRICE,-73.579719,45.663726
42410,MIRELLE/TRISTAN,-73.585926,45.669202
42411,MIRELLE/CHIMENE,-73.587494,45.670811
42412,MIRELLE/M.-BARBEAU,-73.588677,45.671917
42413,MIRELLE/LEVESQUE,-73.579436,45.663295
42414,MIRELLE/CHARTRAND,-73.580902,45.664832
42415,MIRELLE/CHARTRAND,-73.581158,45.664895
42416,MIRELLE/ADRIEN,-73.582701,45.66646
42417,MIRELLE/ADRIEN,-73.582945,45.666487
42418,MIRELLE/ROMAIN,-73.583909,45.667548
42419,MIRELLE/ROMAIN,-73.584165,45.667602
42420,MIRELLE/TRISTAN,-73.585708,45.669184
42421,MONETTE/I.-PAVLOV,-73.710508,45.607303
42422,MONETTE/A.-BARBEAU,-73.709659,45.606297
42423,MONETTE/A.-BARBEAU,-73.709376,45.606253
42424,MONETTE/FACE AU 1635,-73.708231,45.604959
42425,MONETTE/FACE AU 1635,-73.707987,45.604942
42426,MONETTE/N.-BETHUNE,-73.706803,45.603612
42430,MONTGOLFIER/S. MARTIN,-73.789105,45.541615
42431,MONTROUGEAU/MARIAN,-73.814097,45.579936
42432,MONTROUGEAU/GILLES,-73.815568,45.581722
42433,MONTROUGEAU/GILLES,-73.81594,45.581802
42434,MONTROUGEAU/ANIK,-73.812448,45.578249
42435,MONTROUGEAU/MARIAN,-73.813686,45.579802
42436,MONTROUGEAU/DAGENAIS,-73.811494,45.577261
42437,MONTROUGEAU/ANIK,-73.811985,45.578088
42439,MONTROUGEAU/DAGENAIS,-73.810877,45.576912
42445,MONTY/GRAVEL,-73.577309,45.665465
42446,MONTY/LEVESQUE,-73.576204,45.664512
42447,M. MOULIN/LERY,-73.578744,45.672581
42448,M. MOULIN/LESSARD,-73.572229,45.666926
42449,M. MOULIN/M.-BARBEAU,-73.579502,45.673562
42450,GALERIES MOULIN,-73.582989,45.677037
42451,M. MOULIN/LA PERIERE,-73.581597,45.675477
42452,M. MOULIN/LA PERIERE,-73.58197,45.675647
42453,M. MOULIN/LERY,-73.57832,45.672483
42454,M. MOULIN/M.-BARBEAU,-73.579913,45.67366
42455,M. MOULIN/ROMAIN,-73.577381,45.67135
42456,M. MOULIN/ROMAIN,-73.57706,45.671296
42457,M. MOULIN/EGLISE,-73.57521,45.669362
42458,M. MOULIN/ADRIEN,-73.575518,45.66992
42459,M. MOULIN/CHARTRAND,-73.574323,45.668562
42460,M. MOULIN/CHARTRAND,-73.573835,45.6684
42461,M. MOULIN/LEVESQUE,-73.572203,45.666629
42466,N.-BETHUNE/I.-PAVLOV,-73.706917,45.61045
42467,N.-BETHUNE/R.-KOCH,-73.70805,45.611636
42468,N.-BETHUNE/R.-KOCH,-73.708294,45.611591
42469,N.-BETHUNE/P.-PINEL,-73.709413,45.612578
42470,N.-BETHUNE/P.-PINEL,-73.709708,45.612578
42471,N.-BETHUNE/S. ELZEAR,-73.711764,45.613996
42472,N.-BETHUNE/MONETTE,-73.706353,45.60337
42473,N.-BETHUNE/L.-DUROCHER,-73.705295,45.604874
42474,N.-BETHUNE/L.-DUROCHER,-73.705424,45.605117
42475,N.-BETHUNE/T.-ORSONNENS,-73.704585,45.607089
42476,N.-BETHUNE/T.-ORSONNENS,-73.704765,45.607278
42477,N.-BETHUNE/D.-ARNOLDI,-73.705272,45.609194
42478,N.-BETHUNE/D.-ARNOLDI,-73.705631,45.609247
42479,N.-BETHUNE/I.-PAVLOV,-73.706558,45.610379
42480,N. DAME/S. CHARLES,-73.74103,45.543553
42481,N. DAME/FACE AU 3870,-73.747845,45.541145
42482,N. DAME/JARRY,-73.749336,45.54072
42483,N. DAME/JARRY,-73.749557,45.540385
42484,N. DAME/85E AV.,-73.751027,45.539734
42485,N. DAME/85E AV.,-73.751,45.539419
42486,N. DAME/HAIFA,-73.752397,45.539053
42487,N. DAME/HAIFA,-73.752598,45.538786
42488,N. DAME/DOVER,-73.75572,45.538374
42489,N. DAME/DOVER,-73.756064,45.538058
42490,N. DAME/92E AV.,-73.756871,45.538138
42491,N. DAME/CHOMEDEY,-73.739277,45.543917
42492,N. DAME/92E AV.,-73.757024,45.537867
42493,N. DAME/ELISABETH,-73.759033,45.537701
42494,N. DAME/ELISABETH,-73.75925,45.537421
42495,N. DAME/FACE AU 4557,-73.762795,45.536917
42496,N. DAME/FACE AU 4540,-73.762563,45.536721
42497,N. DAME/100E AV.,-73.765631,45.536256
42498,N.-DAME/100E AV.,-73.764495,45.536336
42499,N. DAME/101E AV.,-73.767167,45.535648
42500,N. DAME/101E AV.,-73.767281,45.535351
42501,N. DAME/MELVILLE,-73.769634,45.534698
42503,N. DAME/MELVILLE,-73.769722,45.534401
42504,N. DAME/CHATELAINE,-73.772982,45.533322
42505,N. DAME/CHATELAINE,-73.773211,45.533052
42506,N-DAME/FACE 5085,-73.776078,45.532775
42507,N. DAME/FACE AU 5090,-73.77568,45.532605
42508,N. DAME/CLARENDON,-73.778214,45.532392
42509,N. DAME/CLARENDON,-73.778545,45.532094
42510,N. DAME/75E AV.,-73.741911,45.543056
42511,N. DAME/W.-LAURIER,-73.743926,45.542538
42512,N. DAME/W.-LAURIER,-73.74341,45.54256
42513,N. DAME/T.-CHAPAIS,-73.745282,45.542086
42514,N. DAME/80E AV.,-73.745832,45.541749
42515,N. DAME/CHOMEDEY,-73.739678,45.544095
42516,N. DAME/C. LABELLE,-73.748357,45.541216
42517,N.-D.-DE-FATIMA/BROUAGE,-73.683757,45.581273
42518,N.-D.-DE-FATIMA/FACE AU 506,-73.682587,45.579988
42519,N.-D.-DE-FATIMA/FACE AU 509,-73.682344,45.579997
42520,N.-D.-DE-FATIMA/METZ,-73.680786,45.578365
42521,N.-D.-DE-FATIMA/METZ,-73.680754,45.578581
42522,N.-D.-DE-FATIMA/KIROUAC,-73.691122,45.587865
42523,N.D.FATIMA/F.SEGUIN,-73.688371,45.585188
42524,N.D.FATIMA/F.SEGUIN,-73.688063,45.585144
42525,N.-D.-DE-FATIMA/ANJOU,-73.686314,45.583347
42526,N.-D.-DE-FATIMA/ANJOU,-73.685981,45.583258
42527,N.-D.-DE-FATIMA/TASCHEREAU,-73.685453,45.582548
42528,N.-D.-DE-FATIMA/TASCHEREAU,-73.68512,45.582494
42529,N.-D.-DE-FATIMA/BROUAGE,-73.684104,45.581335
42530,OISEAUX/C. LABELLE,-73.785622,45.591732
42531,OISEAUX/AIGLON,-73.774885,45.590754
42532,OISEAUX/CYGNES,-73.78189,45.586986
42533,OISEAUX/AIGLON,-73.775779,45.588938
42534,OISEAUX/GERFAUT,-73.778579,45.586204
42535,OISEAUX/ENGOULEVENT,-73.776588,45.587285
42536,OISEAUX/ENGOULEVENT,-73.776619,45.586946
42537,OISEAUX/ROUGE-GORGE,-73.778359,45.58646
42538,OISEAUX/BERGERONNETTES,-73.775659,45.588653
42539,OISEAUX/CYGNES,-73.781533,45.586876
42540,OISEAUX/AIGLON,-73.774787,45.590508
42541,OISEAUX/C. LABELLE,-73.785864,45.591888
42542,OISEAUX/ROUGE-GORGE,-73.781034,45.588394
42543,OISEAUX/VANNEAU,-73.773727,45.591454
42544,OISEAUX/ROSSIGNOLS,-73.772342,45.591914
42545,OISEAUX/VOLIERE(OUEST),-73.78247,45.592023
42546,OISEAUX/VOLIERE(OUEST),-73.782062,45.592055
42547,OISEAUX/TOURTERELLES,-73.780704,45.590362
42548,OISEAUX/TOURTERELLES,-73.780395,45.59031
42549,OISEAUX/ROUGE-GORGE,-73.781132,45.588669
42550,OISEAUX/PINTADES,-73.773604,45.591725
42551,O.-CHAUVEAU/CHATILLON,-73.754303,45.618858
42552,O.-CHAUVEAU/THIBAULT,-73.754811,45.620468
42553,O.-CHAUVEAU/VALAIS,-73.752122,45.615795
42554,O.-CHAUVEAU/CHATILLON,-73.753995,45.618715
42555,O.-CHAUVEAU/CORINTHE,-73.750371,45.614017
42556,O.-CHAUVEAU/VALAIS,-73.751763,45.615678
42557,O.-CHAUVEAU/CORINTHE,-73.750037,45.613945
42558,PRAIRIES/BRIEN,-73.707363,45.546868
42561,PARC/BEGIN,-73.665127,45.607954
42562,PARC/LESAGE,-73.66726,45.609733
42565,PARC/MORIN,-73.659652,45.603175
42566,PARC/MORIN,-73.659908,45.603237
42567,PARC/F.-FOUCAULT,-73.662492,45.605735
42568,PARC/F.-FOUCAULT,-73.662762,45.605825
42569,PARC/BEGIN,-73.664896,45.607936
42570,PARC-DES-ERABLES/TERRASSES,-73.766991,45.633685
42571,PARC-DES-ERABLES/AMYOT,-73.769081,45.639272
42572,PARC-DES-ERABLES/AMYOT,-73.769224,45.639187
42573,PATRIOTES/MANTHET,-73.780366,45.607369
42574,PATRIOTES/ROI-DU-NORD,-73.780762,45.609528
42575,PATRIOTES/ROI-DU-NORD,-73.78098,45.609707
42576,PATRIOTES/JE-ME-SOUVIENS,-73.78135,45.611794
42577,PATRIOTES/JE-ME-SOUVIENS,-73.781569,45.612009
42578,PATRIOTES/NADON,-73.782256,45.615023
42579,PATRIOTES/NADON,-73.782405,45.61513
42580,PATRIOTES/S. ROSE,-73.78267,45.616504
42581,PERRON/FACE AU 640,-73.74727,45.631912
42582,PERRON/FACE AU 635,-73.747501,45.63201
42583,ERABLES/PEUPLIERS,-73.881071,45.531771
42584,PIE-IX/CASTILLE,-73.637162,45.590948
42585,PRAIRIES/FACE AU 23,-73.678452,45.556977
42586,PRAIRIES/FACE AU 122,-73.686777,45.552806
42587,PRAIRIES/ANSE-BLEUE,-73.687864,45.552399
42588,PRAIRIES/ANSE-BLEUE,-73.688404,45.552093
42589,PRAIRIES/FACE AU 151,-73.690501,45.551891
42590,PRAIRIES/FACE AU 157,-73.690961,45.551773
42591,PRAIRIES/FACE AU 227,-73.695803,45.551729
42592,PRAIRIES/FACE AU 228,-73.696007,45.551603
42593,PRAIRIES/CROCHET,-73.699295,45.550697
42594,PRAIRIES/CROCHET,-73.699449,45.550526
42595,PRAIRIES/PACIFIQUE,-73.700753,45.549903
42597,PRAIRIES/PACIFIQUE,-73.701111,45.549555
42598,PRAIRIES/LAVAL,-73.70285,45.548999
42599,PRAIRIES/LAVAL,-73.702977,45.54881
42600,PRAIRIES/B.PASTEUR,-73.705663,45.547761
42601,PRAIRIES/B.PASTEUR,-73.705816,45.547581
42602,PRAIRIES/BRIEN,-73.707287,45.547075
42603,PRAIRIES/DUSSAULT,-73.709037,45.545911
42604,PRAIRIES/DUSSAULT,-73.709151,45.545694
42605,PRAIRIES/GIROUX,-73.710621,45.544972
42606,PRAIRIES/TALBOT,-73.680638,45.555659
42607,PRAIRIES/GIROUX,-73.710749,45.544765
42608,PRAIRIES/VERDI,-73.711848,45.544196
42609,PRAIRIES/AUBRY,-73.711987,45.543936
42610,PRAIRIES/CLERMONT,-73.713163,45.543096
42611,PRAIRIES/CLERMONT,-73.713302,45.542789
42612,PRAIRIES/MICRO,-73.715679,45.541462
42613,PRAIRIES/MICRO,-73.715935,45.541282
42614,PRAIRIES/A.-FRAPPIER,-73.717623,45.54091
42615,PRAIRIES/A.-FRAPPIER,-73.718224,45.540647
42616,PRAIRIES/D. JOHNSON,-73.721563,45.539885
42617,PRAIRIES/TALBOT,-73.680537,45.555544
42618,LEVESQUE/D. JOHNSON,-73.721909,45.539732
42619,PRAIRIES/S. HUBERT,-73.677367,45.558067
42620,PRAIRIES/EMILE,-73.682953,45.554684
42621,PRAIRIES/EMILE,-73.683068,45.554522
42622,PRAIRIES/CONRAD,-73.684667,45.553889
42623,PRAIRIES/CONRAD,-73.684999,45.553619
42624,PRAIRIES/FACE AU 120,-73.686611,45.552995
42625,P.-RUPERT/PERRON,-73.746157,45.632715
42626,P.-RUPERT/S. SAENS,-73.750196,45.638069
42627,P.-RUPERT/RANCOURT,-73.750641,45.640174
42628,P.-RUPERT/RANCOURT,-73.75073,45.63985
42629,P.-RUPERT/REAUMUR,-73.751162,45.641928
42630,P.-RUPERT/REAUMUR,-73.751407,45.642107
42631,P.-RUPERT/ROBILLARD,-73.7521,45.645066
42632,P.-RUPERT/ROBILLARD,-73.752357,45.645182
42633,P.-RUPERT/PERRON,-73.746118,45.632463
42634,P.-RUPERT/FACE AU 5835,-73.74778,45.634178
42635,P.-RUPERT/FACE AU 5840,-73.747972,45.634169
42636,P.-RUPERT/PAGEAU,-73.749236,45.635669
42637,P.-RUPERT/PAGEAU,-73.749506,45.635821
42638,P.-RUPERT/S. SAENS,-73.749886,45.637656
42639,PRINCIPALE/BIGRAS,-73.798756,45.535849
42640,PRINCIPALE/LISE,-73.810386,45.531958
42641,PRINCIPALE/H.-DE-VILLE,-73.815347,45.530837
42642,PRINCIPALE/DUPRAT,-73.81293,45.531384
42643,PRINCIPALE/FRANCIS,-73.817571,45.530219
42644,PRINCIPALE/LAURIN,-73.814618,45.530911
42645,PRINCIPALE/CAROLE,-73.820422,45.529356
42646,PRINCIPALE/FRANCIS,-73.81766,45.530057
42647,PRINCIPALE/MAURICE,-73.820076,45.52933
42648,PRINCIPALE/CORBEIL,-73.823348,45.528385
42649,PRINCIPALE/CHAMPAGNE,-73.796496,45.537043
42650,PRINCIPALE/P.-PUBLIQUE,-73.821034,45.528995
42651,PRINCIPALE/NOEL,-73.826144,45.527163
42652,PRINCIPALE/CORBEIL,-73.823334,45.528277
42653,PRINCIPALE/COQUELICOTS,-73.8289,45.526786
42654,PRINCIPALE/BASTIEN,-73.833538,45.527373
42655,PRINCIPALE/NOEL,-73.826476,45.526946
42656,PRINCIPALE/SAULES,-73.830919,45.526987
42657,PRINCIPALE/BASTIEN,-73.830675,45.526862
42658,PRINCIPALE/FACE AU 1210,-73.836569,45.529931
42659,PRINCIPALE/FACE AU 1270,-73.838359,45.531743
42660,PRINCIPALE/JACINTHES,-73.834171,45.527528
42661,PRINCIPALE/FACE AU 1350,-73.840317,45.53369
42662,PRINCIPALE/PIERRE,-73.803993,45.533586
42663,PRINCIPALE/FACE AU 1202,-73.836516,45.529652
42664,PRINCIPALE/FACE AU 1431,-73.842198,45.535574
42665,PRINCIPALE/FACE AU 1270,-73.838409,45.531536
42666,PRINCIPALE/FACE AU 1350,-73.840496,45.533699
42667,PRINCIPALE/DULUDE,-73.846076,45.539558
42668,PRINCIPALE/FACE AU 1431,-73.842338,45.535493
42669,PRINCIPALE/BRADY,-73.848893,45.542381
42670,PRINCIPALE/DULUDE,-73.846294,45.53953
42671,PRINCIPALE/S. ANTOINE,-73.849365,45.543372
42672,PRINCIPALE/BRADY,-73.848873,45.542124
42673,PRINCIPALE/BIGRAS,-73.798857,45.53566
42674,PRINCIPALE/MALRAUX,-73.806589,45.532913
42675,PRINCIPALE/PIERRE,-73.803596,45.533623
42676,PRINCIPALE/LISE,-73.811116,45.531974
42677,PRINCIPALE/MALRAUX,-73.807106,45.532674
42678,PRINCIPALE/DUPRAT,-73.813046,45.53151
42679,PROVENCE/LAURENTIDES,-73.746289,45.621854
42680,PROVENCE/PASCAL,-73.745893,45.627938
42681,PROVENCE/PELLAN,-73.747298,45.629635
42682,PROVENCE/PELLAN,-73.747542,45.62968
42683,PROVENCE/PERRON,-73.749012,45.631494
42684,PROVENCE/PARME,-73.748843,45.631072
42685,PROVENCE/LAURENTIDES,-73.746364,45.621959
42686,PROVENCE/PREFONTAINE,-73.744677,45.622703
42687,PROVENCE/PREFONTAINE,-73.744588,45.622893
42688,PROVENCE/PELADEAU,-73.742878,45.62475
42689,PROVENCE/PELADEAU,-73.743084,45.624857
42690,PROVENCE/PAPILLON,-73.744348,45.626708
42691,PROVENCE/PAPILLON,-73.744631,45.626789
42692,PROVENCE/PASCAL,-73.745584,45.627803
42693,PRUDENTIEL/ABEILLES,-73.730271,45.624623
42694,PRUDENTIEL/ABEILLES,-73.730411,45.62438
42695,PRUDENTIEL/BELGRADE,-73.73577,45.61789
42696,PRUDENTIEL/TREVET,-73.735581,45.618664
42697,PRUDENTIEL/TREVET,-73.735608,45.618916
42698,PRUDENTIEL/CASAULT,-73.734625,45.62007
42699,PRUDENTIEL/CASAULT,-73.734767,45.620223
42700,PRUDENTIEL/NYMPHES,-73.733098,45.622971
42701,PRUDENTIEL/NYMPHES,-73.732958,45.623187
42702,RELAIS/B.-D.-L'EAU,-73.855602,45.523061
42703,RELAIS/B.-D.-L'EAU,-73.855513,45.523224
42704,R.-LAENNEC/LAUSANNE,-73.723376,45.616061
42705,R.-LAENNEC/TOSCANE,-73.710947,45.601265
42706,R.-LAENNEC/GRISONS,-73.723484,45.614135
42707,R.-LAENNEC/LAUSANNE,-73.724433,45.62054
42708,R.-LAENNEC/CLEVES,-73.722593,45.612599
42709,R.-LAENNEC/LAUSANNE,-73.72308,45.615738
42710,R.-LAENNEC/FACE AU 2536,-73.722652,45.618561
42711,R.-LAENNEC/DAGENAIS,-73.720956,45.610325
42712,R.-LAENNEC/CLEVES,-73.722157,45.612554
42713,R.-LAENNEC/GRISONS,-73.723021,45.613857
42714,R.-LAENNEC/S. ELZEAR,-73.719411,45.608726
42715,R.-LAENNEC/S. ELZEAR,-73.718911,45.608655
42716,R.-LAENNEC/TOSCANE,-73.711036,45.600914
42717,R.-LAENNEC/DAGENAIS,-73.720147,45.609922
42718,R.-LAENNEC/I.-PAVLOV,-73.716235,45.606168
42719,CITE SANTE,-73.712066,45.602298
42720,CITE SANTE,-73.712532,45.602328
42721,R.-LAENNEC/NAMUR,-73.713662,45.603806
42722,R.-LAENNEC/NAMUR,-73.714149,45.603832
42723,R.-LAENNEC/I.-PAVLOV,-73.71631,45.605844
42726,RIO/BELGRADE,-73.746045,45.613027
42727,RIO/O.-CHAUVEAU,-73.7441,45.610944
42729,RIO/BELLEROSE,-73.741526,45.608538
42730,RIO/O.-CHAUVEAU,-73.74369,45.610819
42740,ROSSIGNOLS/PETITE-COTE,-73.771238,45.58872
42741,ROSSIGNOLS/PETITE-COTE,-73.770916,45.588627
42749,15E RUE/MOLIERE,-73.696721,45.558098
42750,15E RUE/8E AVENUE,-73.697925,45.565569
42751,15E RUE/CONCORDE,-73.69752,45.566582
42752,15E RUE/MOLIERE,-73.697375,45.558286
42753,15E RUE/ROBIN,-73.698482,45.559754
42754,15E RUE/ROBIN,-73.698056,45.559672
42755,15E RUE/CLUNY,-73.699126,45.560659
42756,15E RUE/CLUNY,-73.699421,45.560946
42757,15E RUE/12E AV.,-73.698378,45.563036
42758,15E RUE/12E AV.,-73.698674,45.56326
42759,15E RUE/8E AV.,-73.697574,45.565504
42760,S. ANTOINE/PRINCIPALE,-73.849621,45.543326
42761,S. ANTOINE/57E AV.,-73.852231,45.542877
42762,S. ANTOINE/57E AV.,-73.85214,45.542776
42763,S. ANTOINE/51E AV.,-73.854516,45.541782
42764,S. ANTOINE/51E AV.,-73.854795,45.541439
42765,S. ANTOINE/A. SAUVE,-73.856942,45.540712
42766,S. ELZEAR/R.-LAENNEC,-73.719257,45.608538
42767,S. ELZEAR/FACE AU 155,-73.721948,45.607522
42768,S. ELZEAR/FACE AU 188,-73.721343,45.607643
42769,S. ELZEAR/BEAUCOURT,-73.72389,45.606612
42770,S. ELZEAR/BEAUCOURT,-73.723966,45.606387
42771,S. ELZEAR/A.-SEGUIN,-73.726562,45.604816
42772,S. ELZEAR/A.-SEGUIN,-73.726638,45.604564
42773,S. ELZEAR/LAURENTIDES,-73.728325,45.603319
42774,S. ELZEAR/LAURENTIDES,-73.72858,45.602959
42775,S. ELZEAR/ROYER,-73.729975,45.602254
42776,S. ELZEAR/N.-BETHUNE,-73.711918,45.613852
42777,S. ELZEAR/NAPLES,-73.731915,45.600369
42778,S. ELZEAR/DELORME,-73.73194,45.60009
42779,S. ELZEAR/J.-PREVOST,-73.733371,45.598927
42780,S. ELZEAR/J.-PREVOST,-73.733357,45.598684
42781,S. ELZEAR/FACE AU 136,-73.734309,45.597512
42782,S. ELZEAR/MARTENOT,-73.735301,45.594039
42783,S. ELZEAR/MARTENOT,-73.735217,45.593906
42784,S. ELZEAR/F.-HUGHES,-73.736818,45.592756
42785,S. ELZEAR/FRANCFORT,-73.712799,45.61304
42786,S. ELZEAR/FRANCFORT,-73.712824,45.612797
42787,S. ELZEAR/MONETTE,-73.714767,45.611174
42788,S. ELZEAR/MONETTE,-73.714778,45.610913
42789,S. ELZEAR/R.-LAENNEC,-73.71895,45.608844
42794,S. HUBERT/QUIMPER,-73.679682,45.560952
42795,S. HUBERT/PRAIRIES,-73.677611,45.558283
42796,S. FR./PENITENCIER,-73.646308,45.618364
42797,S. FRANCOIS/LEVESQUE,-73.644328,45.61627
42798,S. FRANCOIS/LEVESQUE,-73.644482,45.616629
42800,S. MARTIN/100E AV.,-73.777325,45.546926
42801,S. MARTIN/DUTRISAC,-73.775021,45.547229
42802,S. MARTIN/DUTRISAC,-73.774755,45.547387
42803,S. MARTIN/FAFARD,-73.771604,45.547732
42804,S. MARTIN/FAUTEUX,-73.769443,45.54834
42805,S. MARTIN/FRANCOEUR,-73.768203,45.54873
42806,S. MARTIN/FACE AU 4397,-73.769277,45.548529
42807,S. MARTIN/FRANCOEUR,-73.768011,45.54891
42808,S. MARTIN/PILON,-73.766821,45.549138
42809,S. MARTIN/PILON,-73.766697,45.549292
42810,S. MARTIN/COUVENT,-73.763113,45.550361
42811,S. MARTIN/ROBINSON,-73.760608,45.551438
42812,S. MARTIN/MAYFIELD,-73.757745,45.552803
42813,S. MARTIN/COUVENT,-73.763203,45.550159
42814,S. MARTIN/ROBINSON,-73.760684,45.551275
42815,S. MARTIN/HEBERT,-73.757406,45.552677
42816,S. MARTIN/LAPALME,-73.754235,45.554111
42817,S. MARTIN/A.-MURPHY,-73.754613,45.554196
42818,S. MARTIN/LACROIX,-73.75281,45.554749
42819,S. MARTIN/MONTGOLFIER,-73.788722,45.541697
42820,S. MARTIN/LACROIX,-73.752503,45.555154
42821,S. MARTIN/FAFARD,-73.771336,45.547921
42822,S. MARTIN/FACE AU 3350,-73.749396,45.556178
42823,S. MARTIN/CHAMPAGNE,-73.799096,45.539645
42825,S. MARTIN/FACE AU 3232,-73.747926,45.556847
42826,S. MARTIN/D. JOHNSON,-73.746842,45.557767
42827,S. MARTIN/BOUTILLIER,-73.786422,45.542692
42828,S. MARTIN/D. JOHNSON,-73.744156,45.558799
42829,S. MARTIN/D. JOHNSON,-73.744874,45.558842
42830,S. MARTIN/FACE AU 2900,-73.742291,45.559846
42831,S. MARTIN/FACE AU 2900,-73.742242,45.560332
42832,S. MARTIN/CORBUSIER,-73.733319,45.564697
42833,S. MARTIN/CORBUSIER,-73.73355,45.56503
42836,S. MARTIN/FACE AU 1454,-73.724612,45.569442
42837,S. MARTIN/BOUTILLIER,-73.786435,45.542818
42839,S. MARTIN/MCNAMARA,-73.7229,45.570369
42840,S. MARTIN/MCNAMARA,-73.722723,45.570918
42841,S. MARTIN/FACE AU 1459,-73.724513,45.569934
42842,S. MARTIN/LAVAL,-73.721648,45.5711
42843,S. MARTIN/INDUSTRIEL,-73.720754,45.57202
42844,S. MARTIN/VIADUC CP,-73.718642,45.572519
42845,S. MARTIN/VIADUC CP,-73.718851,45.57284
42846,V. DESSERTE S. MARTIN/FLEETWOOD,-73.714103,45.575002
42847,S. MARTIN/FLEETWOOD,-73.71427,45.575092
42848,S. MARTIN/FACE AU 5184,-73.785221,45.543289
42849,S. MARTIN/SILLERY,-73.714719,45.575244
42850,S. MARTIN/SUN VALLEY,-73.712072,45.576652
42851,S. MARTIN/SUN VALLEY,-73.712164,45.577084
42852,S. MARTIN/B.-D.-BOULOGNE,-73.710463,45.577924
42853,S. MARTIN/VALLIERES,-73.710465,45.578482
42854,S. MARTIN/LAURENTIDES,-73.706412,45.581126
42855,S. MARTIN/GRENOBLE,-73.706772,45.58135
42856,S. MARTIN/LAURENTIDES,-73.704059,45.582345
42857,S. MARTIN/FACE AU 305,-73.701204,45.585017
42858,S. MARTIN/FACE AU 255,-73.701985,45.58404
42859,S. MARTIN/ORAN,-73.704675,45.582443
42860,S. MARTIN/FACE AU 305,-73.701541,45.585232
42862,S. MARTIN/FACE AU 700,-73.69931,45.587365
42863,S. MARTIN/FACE AU 5184,-73.78526,45.543406
42864,S. MARTIN/FACE AU 700,-73.699695,45.587509
42865,S. MARTIN/N.-D.FATIMA,-73.69517,45.591062
42866,S. MARTIN/N.-D.FATIMA,-73.695914,45.591043
42867,S. MARTIN/ MAURICIE,-73.686974,45.596843
42868,S. MARTIN/MAURICIE,-73.686989,45.597311
42869,S. MARTIN/BLOIS,-73.683137,45.59927
42870,S. MARTIN/BLOIS,-73.683151,45.599711
42871,S. MARTIN/FACE AU 2850,-73.680475,45.600777
42872,S. MARTIN/FACE AU 2830,-73.681539,45.600577
42873,S. MARTIN/AUTEUIL,-73.677091,45.604814
42874,S. MARTIN/FACE AU 5004,-73.782871,45.544447
42876,S. MARTIN/RTE. 125 S.,-73.664344,45.612175
42877,S. MARTIN/RTE. 125 S.,-73.66395,45.612563
42878,S. MARTIN/FACE AU 4952,-73.781598,45.545054
42879,S. MARTIN/RTE. 125 N.,-73.662398,45.612979
42880,S. MARTIN/BREAULT,-73.661516,45.613532
42881,S. MARTIN/FACE AU 5004,-73.782807,45.5446
42882,S. MARTIN/FACE AU 4940,-73.781516,45.545219
42883,S. MARTIN/100E AV.,-73.777644,45.546691
42884,S. ROSE/3E AV.,-73.877954,45.536667
42885,S. ROSE/21E AV.,-73.874383,45.543984
42886,S. ROSE/FACE AU 104,-73.781075,45.618354
42887,S. ROSE/DUFFERIN,-73.779847,45.619708
42888,S. ROSE/DUFFERIN,-73.779888,45.619437
42889,S. ROSE/FACE AU 65,-73.778719,45.621582
42890,S. ROSE/FACE AU 57,-73.778489,45.621717
42891,S. ROSE/ARCHAMBAULT,-73.77688,45.623224
42893,S. ROSE/ARCHAMBAULT,-73.777071,45.622962
42894,S. ROSE/O.-PAYETTE,-73.774152,45.623977
42895,S. ROSE/JEAN-CHARLES,-73.771424,45.62465
42896,S. ROSE/27E AV.,-73.87341,45.54658
42897,S. ROSE/O.-PAYETTE,-73.774498,45.623796
42898,S. ROSE/JEAN-CHARLES,-73.771564,45.624487
42901,GARE S. ROSE,-73.766135,45.626291
42902,GARE S. ROSE,-73.766391,45.626047
42903,S. ROSE/SICARD,-73.762499,45.627469
42904,S. ROSE/TRENET,-73.762652,45.627253
42905,S. ROSE/FACE AU 166,-73.760308,45.627879
42906,HORIZON-JEUNESSE,-73.760268,45.627726
42907,S. ROSE/SAVARY,-73.758464,45.628504
42908,S. ROSE/27E AV.,-73.873331,45.546221
42909,S. ROSE/SAVARY,-73.758437,45.62836
42910,S. ROSE/TRAHAN,-73.756467,45.629291
42911,S. ROSE/TRAHAN,-73.756671,45.629075
42912,S. ROSE/LAURENTIDES,-73.753162,45.630279
42913,S. ROSE/28E AV.,-73.872655,45.548554
42914,S. ROSE/31E AV.,-73.872588,45.548116
42915,S. ROSE/37E AV.,-73.871987,45.550256
42916,S. ROSE/24E AV.,-73.871542,45.550807
42917,S. ROSE/41E AV.,-73.870886,45.552128
42918,S. ROSE/41E AV.,-73.870388,45.552529
42919,S. ROSE/A. SAUVE,-73.869538,45.553418
42920,S. ROSE/3E AV.,-73.877774,45.536587
42921,S. ROSE/A. SAUVE,-73.869407,45.553315
42922,S. ROSE/51E AV.,-73.867739,45.554796
42923,S. ROSE/51E AV.,-73.867661,45.554635
42924,S. ROSE/55E AV.,-73.866658,45.555934
42925,S. ROSE/55E AV.,-73.866631,45.5557
42926,S. ROSE/2E AV.,-73.86555,45.5569
42927,S. ROSE/2E AV.,-73.865587,45.556693
42928,S. ROSE/4E AV.,-73.864301,45.557948
42929,S. ROSE/4E AV.,-73.864313,45.557759
42930,S. ROSE/8E AV.,-73.86248,45.559645
42931,S. ROSE/7E AV.,-73.877147,45.538533
42932,S. ROSE/8E AV.,-73.862492,45.559501
42933,S. ROSE/10E AV.,-73.861422,45.560377
42934,S. ROSE/10E AV.,-73.861485,45.560179
42935,S. ROSE/14E AV.,-73.859639,45.562075
42936,S. ROSE/14E AV.,-73.859638,45.561868
42937,S. ROSE/18E AV.,-73.857104,45.564314
42938,S. ROSE/18E AV.,-73.857154,45.564098
42939,S. ROSE/22E AV.,-73.855537,45.565561
42940,S. ROSE/7E AV.,-73.877055,45.538263
42941,S. ROSE/22E AV.,-73.85551,45.565417
42942,S. ROSE/LABERGE,-73.852733,45.565894
42943,S. ROSE/ELUARD,-73.853275,45.565779
42944,S. ROSE/BELLEMARE,-73.850773,45.565828
42945,S. ROSE/BELLEMARE,-73.851028,45.565674
42946,S. ROSE/30E AV.,-73.84677,45.566001
42947,S. ROSE/30E AV.,-73.846895,45.565808
42948,S. ROSE/COUSTEAU,-73.841804,45.5677
42949,S. ROSE/FACE AU 4199,-73.84023,45.568127
42950,S. ROSE/ROSAIRE,-73.842276,45.567383
42951,S. ROSE/FACE AU 4200,-73.839871,45.568038
42952,S. ROSE/40E AV.,-73.836544,45.568669
42953,S. ROSE/13E AV.,-73.875923,45.541191
42954,S. ROSE/40E AV.,-73.836645,45.56848
42955,S. ROSE/43E AV.,-73.83435,45.569634
42956,S. ROSE/M. SAURIOL,-73.834843,45.569124
42957,S. ROSE/ODILE,-73.831756,45.571389
42958,S. ROSE/ODILE,-73.830819,45.572099
42959,S. ROSE/BORDEAUX,-73.828842,45.574909
42960,S. ROSE/AUTOROUTE 13 N.,-73.828343,45.575064
42961,S. ROSE/MARIAN,-73.82557,45.57841
42962,S. ROSE/MARIAN,-73.825141,45.578472
42963,S. ROSE/CARACAS,-73.823488,45.579586
42964,S. ROSE/13E AV.,-73.875806,45.541003
42965,S. ROSE/CARACAS,-73.823435,45.579388
42966,S. ROSE/LISETTE,-73.819207,45.581622
42967,S. ROSE/LISETTE,-73.819423,45.581334
42968,S. ROSE/MONTROUGEAU,-73.816908,45.583014
42969,S. ROSE/MONTROUGEAU,-73.817241,45.582404
42970,S. ROSE/POLY-JEUNESSE,-73.81648,45.586624
42971,S. ROSE/POLY-JEUNESSE,-73.816338,45.586534
42972,S. ROSE/MATTAWA,-73.815907,45.58964
42973,S. ROSE/GENES,-73.815739,45.589379
42974,S. ROSE/SAINT-SEBASTIEN,-73.814506,45.593441
42975,S. ROSE/17E AV.,-73.87519,45.54275
42976,S. ROSE/SAINT-SEBASTIEN,-73.814479,45.59327
42977,S. ROSE/VAUQUELIN,-73.812528,45.595057
42978,S. ROSE/VAUQUELIN,-73.812553,45.594859
42979,kiosque ancètres,-73.81097,45.59634
42980,Kiosque ancètres,-73.811047,45.59606
42981,S.ROSE/JAFFA,-73.807281,45.598968
42982,S.ROSE/JAFFA,-73.806948,45.598996
42986,S. ROSE/P.-E.BORDUAS,-73.801218,45.603663
42987,S. ROSE/17E AV.,-73.875175,45.542354
42988,S. ROSE/LATOUR,-73.800056,45.604629
42989,S. ROSE/LATOUR,-73.800158,45.604422
42990,S. ROSE/LORTIE,-73.797323,45.606499
42991,S. ROSE/LORTIE,-73.797412,45.606309
42992,S. ROSE/LONGPRE,-73.795384,45.608465
42993,S. ROSE/LONGPRE,-73.795511,45.60815
42994,S. ROSE/T.-CASGRAIN,-73.793701,45.610143
42995,S. ROSE/T.-CASGRAIN,-73.793738,45.609954
42996,S. ROSE/C. LABELLE,-73.791643,45.611408
42997,S. ROSE/21E AV.,-73.874448,45.544286
42998,S. ROSE/C. LABELLE,-73.791515,45.611346
42999,S. ROSE/FACE AU 274,-73.79062,45.611816
43000,S. ROSE/FACE AU 271,-73.790595,45.611969
43001,S. ROSE/CANTIN,-73.788189,45.612794
43002,S. ROSE/FILION,-73.788508,45.612496
43003,S. ROSE/HOTTE,-73.785736,45.614618
43004,S. ROSE/DESLAURIERS,-73.785697,45.614474
43007,S. ROSE/PATRIOTES,-73.782683,45.616776
43008,S. ROSE/PATRIOTES,-73.782873,45.616442
43009,S. ROSE/FACE AU 99,-73.781159,45.618466
43011,SALABERRY/FORTIN,-73.722271,45.57639
43012,SALABERRY/INDUSTRIEL,-73.723688,45.575101
43013,SALABERRY/F.-HUGHES,-73.720341,45.577645
43014,SALABERRY/FORTIN,-73.722221,45.576732
43015,SAMSON/B.-D.-L'EAU,-73.82474,45.521093
43016,SAMSON/MAISONNEUVE,-73.806025,45.525743
43017,SAMSON/SYLVIE,-73.804278,45.524658
43018,SAMSON/SYLVIE,-73.804814,45.524652
43019,SAMSON/HUBERDEAU,-73.802608,45.523682
43020,SAMSON/PESANT,-73.823259,45.521745
43021,SAMSON/HUBERDEAU,-73.803159,45.523663
43022,SAMSON/PESANT,-73.823257,45.521475
43023,SAMSON/N. DAME,-73.801369,45.522919
43024,SAMSON/N. DAME,-73.801284,45.522534
43025,SAMSON/FACE AU 239,-73.798821,45.521667
43026,SAMSON/FACE AU 239,-73.799166,45.521469
43027,SAMSON/FOUQUET,-73.79429,45.521688
43028,SAMSON/GRAVEL,-73.816893,45.524471
43029,SAMSON/FOUQUET,-73.794557,45.5214
43030,SAMSON/BRAIS,-73.790246,45.52195
43031,SAMSON/BRAIS,-73.79123,45.521642
43032,SAMSON/J.-DEMERS,-73.787724,45.52184
43033,SAMSON/C.CHARBONNEAU,-73.781201,45.522954
43034,SAMSON/J.-DEMERS,-73.78738,45.52212
43035,SAMSON/NOEL,-73.821343,45.522506
43036,SAMSON/C.CHARBONNEAU,-73.781966,45.522358
43037,SAMSON/NOEL,-73.821405,45.522173
43038,SAMSON/CHERBOURG,-73.773176,45.525844
43039,SAMSON/CHERBOURG,-73.773417,45.525411
43040,SAMSON/4E RUE,-73.769479,45.526402
43041,SAMSON/CARLETON,-73.769734,45.526158
43042,SAMSON/FACE AU 5034,-73.766996,45.526614
43043,SAMSON/MAURICE,-73.815455,45.524862
43044,SAMSON/CLEMENCEAU,-73.766624,45.526426
43045,SAMSON/COTE,-73.764579,45.52698
43046,SAMSON/COTE,-73.764654,45.526719
43047,SAMSON/DES ILES,-73.762559,45.527668
43048,SAMSON/FACE AU 709,-73.819035,45.52336
43049,SAMSON/DES ILES,-73.762775,45.527371
43050,SAMSON/FACE AU 714,-73.818901,45.523116
43051,SAMSON/100E AV.,-73.759426,45.528431
43052,SAMSON/LEVESQUE,-73.759988,45.528052
43053,SAMSON/1ERE RUE,-73.757509,45.529057
43054,SAMSON/1ERE RUE,-73.756715,45.529067
43055,SAMSON/92E AV.,-73.751673,45.532839
43056,SAMSON/MAURICE,-73.815469,45.525168
43057,SAMSON/92E AV.,-73.751252,45.532769
43058,SAMSON/89E AV.,-73.749236,45.534447
43059,SAMSON/89E AV.,-73.748967,45.534259
43060,SAMSON/85E AV.,-73.746464,45.535884
43061,SAMSON/85E AV.,-73.746514,45.535596
43062,SAMSON/83E AV.,-73.744446,45.53695
43063,SAMSON/83E AV.,-73.744292,45.536852
43064,SAMSON/H.-DE-VILLE,-73.812684,45.526112
43065,SAMSON/H.-DE-VILLE,-73.812314,45.526481
43066,SAMSON/GOUIN,-73.809664,45.526444
43067,SAMSON/GOUIN,-73.809243,45.526679
43068,SAMSON/MAISONNEUVE,-73.806655,45.525701
43069,M. SAURIOL/DAGENAIS,-73.829402,45.563811
43070,M. SAURIOL/SYLVESTRE,-73.830283,45.564953
43071,M. SAURIOL/SYLVESTRE,-73.830449,45.56488
43072,M. SAURIOL/STEPHANIE,-73.83152,45.566191
43073,M. SAURIOL/STEPHANIE,-73.831841,45.566235
43074,M. SAURIOL/SYLVIO,-73.833324,45.567995
43075,M. SAURIOL/SYLVIO,-73.833658,45.568066
43076,M. SAURIOL/S. ROSE,-73.834291,45.568973
43077,A. SAUVE/80E RUE,-73.858539,45.542075
43078,A. SAUVE/DUHAMEL,-73.864077,45.547069
43079,A. SAUVE/DAGENAIS,-73.865008,45.548344
43080,A. SAUVE/DAGENAIS,-73.865224,45.548191
43081,A. SAUVE/52E RUE,-73.867431,45.550802
43082,A. SAUVE/52E RUE,-73.867892,45.550684
43083,A. SAUVE/S. ROSE,-73.869879,45.55299
43084,A. SAUVE/S. ROSE,-73.869735,45.552468
43085,A. SAUVE/45E AV.,-73.872004,45.554606
43086,A. SAUVE/PREVERT,-73.872476,45.554493
43088,A. SAUVE/80E RUE,-73.858808,45.542128
43091,A. SAUVE/47E AV.,-73.857958,45.541357
43093,A. SAUVE/TROYAT,-73.859775,45.543232
43094,A. SAUVE/TROYAT,-73.860109,45.543344
43095,A. SAUVE/A.-BLONDIN,-73.861914,45.545286
43096,A. SAUVE/A.-BLONDIN,-73.862248,45.545339
43097,A. SAUVE/DUHAMEL,-73.863731,45.547035
43101,SEGUIN/37E AV.,-73.842299,45.571252
43102,SEGUIN/COUSTEAU,-73.844561,45.570274
43103,SEGUIN/40E AV.,-73.840396,45.572194
43104,SEGUIN/37E AV.,-73.842236,45.571451
43105,SEGUIN/42E AV.,-73.838786,45.572973
43106,SEGUIN/40E AV.,-73.840358,45.572347
43107,SOUVENIR/EFFINGHAM,-73.770478,45.538108
43108,SOUVENIR/EMERSON,-73.76935,45.53875
43109,SOUVENIR/EMERSON,-73.76942,45.538926
43110,SOUVENIR/100E AV.,-73.767713,45.540038
43111,SOUVENIR/100E AV.,-73.767485,45.54048
43112,SOUVENIR/WEBB,-73.766157,45.541329
43113,SOUVENIR/WEBB,-73.766094,45.54159
43114,SOUVENIR/LEO,-73.764462,45.543006
43115,SOUVENIR/ELIOT,-73.764488,45.543222
43116,SOUVENIR/ELISABETH,-73.762383,45.544946
43117,SOUVENIR/PILON,-73.762333,45.545207
43118,PLACE DU SOUVENIR,-73.760842,45.546668
43119,SOUVENIR/TREPANIER,-73.761263,45.54628
43120,SOUVENIR/COUVENT,-73.759988,45.547525
43121,SOUVENIR/COUVENT,-73.759937,45.547723
43122,SOUVENIR/C. LABELLE,-73.757371,45.548906
43123,SOUVENIR/C. LABELLE,-73.756947,45.549205
43124,SOUVENIR/HEBERT,-73.754696,45.549678
43125,SOUVENIR/HEBERT,-73.754504,45.549805
43126,SOUVENIR/JOLLIET,-73.752596,45.5498
43127,SOUVENIR/FACE AU 5175,-73.776558,45.534204
43128,SOUVENIR/JOLLIET,-73.752456,45.549962
43129,SOUVENIR/LAPALME,-73.750715,45.550236
43130,SOUVENIR/LAPALME,-73.750562,45.55038
43131,SOUVENIR/PIE-X,-73.749651,45.550571
43132,SOUVENIR/PIE-X,-73.749526,45.55076
43133,SOUVENIR/CHOMEDEY,-73.746505,45.551118
43134,SOUVENIR/FACE AU 3475,-73.747005,45.551225
43135,SOUVENIR/CHOMEDEY,-73.744989,45.551861
43136,SOUVENIR/CHOMEDEY,-73.745251,45.552112
43137,SOUVENIR/SENIOR,-73.743094,45.553141
43138,SOUVENIR/CARMEL,-73.77605,45.535015
43139,SOUVENIR/SENIOR,-73.743798,45.55304
43140,SOUVENIR/D. JOHNSON,-73.740781,45.554846
43142,SOUVENIR/A.-FRAPPIER,-73.736163,45.555675
43143,SOUVENIR/A.-FRAPPIER,-73.736011,45.55608
43144,SOUVENIR/CENTRE LAVAL,-73.728827,45.559496
43145,SOUVENIR/CENTRE LAVAL,-73.729851,45.559314
43146,SOUVENIR/CORBUSIER,-73.726193,45.560952
43147,SOUVENIR/L.-PAIEMENT,-73.725287,45.560919
43148,SOUVENIR/ AVENIR,-73.722968,45.561631
43149,SOUVENIR/CEGEP,-73.720371,45.562446
43150,SOUVENIR/CHATELAINE,-73.775079,45.535495
43152,SOUVENIR/FACE AU 1583,-73.720718,45.562653
43155,SOUVENIR/11E AV.,-73.7045,45.569728
43156,SOUVENIR/CHATELAINE,-73.77482,45.535765
43157,SOUVENIR/MELVILLE,-73.77226,45.53686
43158,SOUVENIR/BERTIN,-73.772148,45.537104
43159,SOUVENIR/EFFINGHAM,-73.770481,45.537899
43160,SILLERY/BASTOGNE,-73.7171,45.577975
43161,V. DESSERTE S. MARTIN/SILLERY,-73.714886,45.575396
43162,S. ELZEAR/FACE AU 135,-73.734581,45.597196
43163,TERRASSES/BEAUJON,-73.763667,45.635997
43164,TERRASSES/PARC-DES-ERABLES,-73.766735,45.633794
43165,TERRASSES/BROSSARD,-73.756656,45.642734
43166,TERRASSES/VAL-DES-BOIS,-73.758011,45.641606
43167,TERRASSES/VAL-DES-BOIS,-73.758074,45.641309
43168,TERRASSES/SELLIER,-73.758789,45.640642
43169,TERRASSES/SELLIER,-73.758776,45.640416
43170,TERRASSES/SANSCARTIER,-73.762019,45.637368
43171,TERRASSES/SANSCARTIER,-73.762108,45.637125
43172,TERRASSES/BEAUJON,-73.763719,45.636095
43180,THIBAULT/ AMAY,-73.753145,45.620687
43181,THIBAULT/LAURENTIDES,-73.748871,45.62291
43182,THIBAULT/LAURENTIDES,-73.748372,45.623001
43183,THIBAULT/AMAY,-73.75303,45.620922
43184,THIBAULT/O.-CHAUVEAU,-73.75485,45.620648
43185,TOURAINE/B.-D.-BOULOGNE,-73.707257,45.573827
43187,TOURAINE/CHABLIS,-73.709711,45.575577
43188,TOURAINE/CHABLIS,-73.709993,45.575603
43190,TOURAINE/B.-D.-BOULOGNE,-73.706719,45.573909
43191,TOURANGEAU/GOINEAU,-73.680424,45.568626
43192,TOURANGEAU/LEGER,-73.677392,45.570143
43193,TOURANGEAU/LEGER,-73.677277,45.570368
43194,TOURANGEAU/ALPES,-73.67564,45.571018
43195,TOURANGEAU/ALPES,-73.676088,45.571018
43196,TOURANGEAU/S. HUBERT,-73.685308,45.565793
43197,TOURANGEAU/S. HUBERT,-73.685245,45.565991
43198,TOURANGEAU/LAHAIE,-73.68417,45.566416
43199,TOURANGEAU/LAHAIE,-73.684119,45.566623
43200,TOURANGEAU/COUSINEAU,-73.682367,45.567399
43201,TOURANGEAU/COUSINEAU,-73.682265,45.567634
43202,TOURANGEAU/GOINEAU,-73.680551,45.568383
43203,TRACY/ARTOIS,-73.67564,45.595782
43204,TRACY/BLOIS,-73.677752,45.594816
43205,TRACY/LESAGE,-73.665172,45.601502
43206,TRACY/PLANTE,-73.667847,45.600229
43207,TRACY/PLANTE,-73.667911,45.600013
43208,TRACY/ AUTEUIL,-73.670752,45.598632
43209,TRACY/ AUTEUIL,-73.670905,45.598371
43210,TRACY/CALLIERES,-73.673184,45.597297
43211,TRACY/CALLIERES,-73.673273,45.597081
43212,TRACY/ARTOIS,-73.675576,45.595989
43218,VAL-BRILLANT/JOLIBOURG,-73.85782,45.52768
43219,VAL-BRILLANT/ANSE-AU-GRIFFON,-73.859339,45.526964
43220,VAL-BRILLANT/ANSE-AU-GRIFFON,-73.859427,45.526766
43221,VAL-BRILLANT/FACE AU PARC JOLIBOURG,-73.859968,45.525261
43222,VAL-BRILLANT/FACE AU PARC JOLIBOURG,-73.859328,45.525227
43223,VAL-BRILLANT/FONTENELLE,-73.858143,45.524079
43224,VAL-BRILLANT/FONTENELLE,-73.857938,45.524098
43226,VALLIERES/RENAUD,-73.712721,45.582104
43227,VALLIERES/SILLERY,-73.712598,45.580107
43228,VALLIERES/VERVIERS,-73.710837,45.57867
43229,VALLIERES/VILLARS,-73.720073,45.587903
43230,VALLIERES/VOLTAIRE,-73.718297,45.586364
43231,VALLIERES/VALOGNES,-73.716349,45.585904
43232,VALLIERES/RICHARD,-73.714268,45.58463
43233,VANIER/FABRIQUE,-73.657425,45.609036
43234,VANIER/DYONNET,-73.652619,45.605029
43235,VANIER/LIEBERT,-73.657495,45.611123
43236,VANIER/JEAN-XXIII,-73.657446,45.611969
43237,VANIER/CONCORDE,-73.651373,45.604257
43238,VANIER/CONCORDE,-73.651066,45.604392
43240,VANIER/BREAULT,-73.660881,45.613536
43241,VANIER/LIEBERT,-73.65779,45.61133
43242,VANIER/DYONNET,-73.652158,45.605129
43243,VANIER/FABRIQUE,-73.657913,45.609512
43244,VANIER/FACE AU 1005,-73.655407,45.60714
43245,VANIER/FACE AU 1006,-73.655843,45.607184
43246,VILLARS/MEXICO,-73.721775,45.587153
43248,AVENIR/S. MARTIN,-73.728304,45.566588
43249,AVENIR/SOUVENIR,-73.723125,45.562486
43257,B.-D.-L'EAU/MARINEAU,-73.791544,45.517979
43258,B.-D.-L'EAU/NENUPHARS,-73.834032,45.520949
43259,B.-D.-L'EAU/NENUPHARS,-73.834531,45.520849
43260,B.-D.-L'EAU/RELAIS,-73.855408,45.522819
43263,B.-D.-L'EAU/RELAIS,-73.855243,45.522982
43264,B.-D.-L'EAU/MARINEAU,-73.791697,45.517843
43265,S.MARTIN/CAROLE,-73.823332,45.532282
43266,C. LABELLE/FACE AU 2914,-73.779486,45.566951
43267,JUSTIN/FACE A HYDRO QUEBEC,-73.806462,45.563778
43268,JUSTIN/FACE A HYDRO QUEBEC,-73.806359,45.563643
43295,CARREFOUR/FACE AU 3030,-73.75101,45.567611
43296,CARREFOUR/DJOHNSON,-73.752863,45.565926
43302,MONSELET/SAINT-VITAL,-73.643086,45.586712
43303,MONSELET/SAINT-VITAL,-73.642651,45.587126
43308,MASSON/FACE AU 1535,-73.64264,45.643383
43343,SOUVENIR/AVENIR,-73.723699,45.561729
43372,AVENIR/TRAIT-CARRE,-73.724244,45.563729
43374,AVENIR/TRAIT-CARRE,-73.724093,45.56414
43380,P.-PELADEAU/S. MARTIN,-73.741797,45.561116
43381,P.-PELADEAU/COLOSSUS,-73.743174,45.562292
43382,T.-FOX/COSMODOME,-73.744098,45.566096
43383,T.-FOX/E.-MONTPETIT,-73.745835,45.56773
43385,T.-FOX/E.-MONTPETIT,-73.74613,45.567829
43386,T.-FOX/COSMODOME,-73.744718,45.566382
43387,P.-PELADEAU/COLOSSUS,-73.743197,45.562031
43389,C. LAB/FACE AU 511,-73.789052,45.580422
43390,C. LABELLE/FACE AU 544,-73.78895,45.581343
43391,BLOIS/TRACY,-73.6777,45.594591
43392,MOREAU/AUT. 13 N.,-73.789096,45.537323
43393,MOREAU/MONTGOLFIER,-73.78745,45.538344
43394,MONTGOLFIER/BERTIN,-73.784994,45.536424
43395,MONTGOLFIER/GROLIER,-73.783824,45.535464
43396,MONTGOLFIER/BINET,-73.781973,45.533966
43397,M.-ILES/ROUTE 335,-73.745849,45.656147
43398,M.-ILES/ROUTE 335,-73.746068,45.656264
43403,RENAISSANCE/P.-E.-BORDUAS,-73.797781,45.60099
43404,J.-BERAUD/FACE AU 3400,-73.759474,45.566791
43405,J.-BERAUD/FACE AU 3285,-73.759986,45.566547
43410,GARE RUISSEAU,-73.692968,45.52805
43411,GARE RUISSEAU,-73.693148,45.528284
43416,CARTIER/A.-FRAPPIER,-73.721583,45.544906
43417,DAGENAIS/GABRIEL,-73.79969,45.579192
43419,RIO/RIO,-73.744852,45.6119
43420,N. DAME/MONTGOLFIER,-73.780698,45.532235
43421,N. DAME/LAVATERE,-73.787839,45.529272
43422,N. DAME/J.-DEMERS,-73.79218,45.527192
43423,N. DAME/PIERRE,-73.795348,45.525744
43424,N. DAME/DUPRE,-73.797596,45.524667
43425,N. DAME/SAMSON,-73.800742,45.522807
43426,SYLVIE/SAMSON,-73.803972,45.524965
43427,SYLVIE/DANDURAND,-73.802484,45.52616
43428,SYLVIE/DANDURAND,-73.802769,45.526137
43429,SAMSON/SYLVIE,-73.804177,45.524992
43430,N. DAME/SAMSON,-73.800408,45.52273
43431,N. DAME/DUPRE,-73.797632,45.52437
43432,NOTRE DAME/TOUSSAINT,-73.795436,45.525429
43433,N. DAME/J.-DEMERS,-73.791732,45.52713
43434,N. DAME/LAVATERE,-73.786795,45.529455
43436,PRINCIPALE/STEPHANE,-73.801642,45.534465
43437,PRINCIPALE/STEPHANE,-73.801655,45.534573
43438,SOUVENIR/D. JOHNSON,-73.741758,45.554656
43439,AVENIR/FACE AU 1647,-73.726625,45.566098
43506,AVENIR/J.-TETREAULT,-73.720251,45.559518
43507,AVENIR/J.-TETREAULT,-73.720821,45.559593
43509,AVENIR/TERMINUS,-73.719327,45.558005
43510,AVENIR/CEGEP,-73.719022,45.558238
43900,AVENIR/FACE AU 1600,-73.726687,45.56579
43920,CHOMEDEY/J.-BERAUD,-73.761657,45.565068
43921,S. ELZEAR/M. S. AUBIN,-73.754266,45.580863
43922,J.-BUREAU/ST-ELZEAR,-73.757226,45.577563
43923,S. ELZEAR/D. JOHNSON,-73.764204,45.574566
43924,S. ELZEAR/A.-LAMARTINE,-73.765504,45.574048
43925,CARREFOUR/CHOMEDEY,-73.757406,45.562621
43927,CARREFOUR/FACE AU 3350,-73.755452,45.564038
43928,CARREFOUR/SELECT.,-73.754295,45.564851
43929,CARREFOUR/DJOHNSON,-73.754215,45.565255
43930,3405 LE CARREFOUR,-73.756098,45.56391
43931,CARREF./LAND ROVER,-73.757024,45.563207
43932,CHOMEDEY/J.-BERAUD,-73.760643,45.564629
43933,S. ELZEAR/A.-DE-LAMARTINE,-73.765887,45.573696
43934,S. ELZEAR/D. JOHNSON,-73.763887,45.574489
43935,J.-BUREAU/ST-ELZEAR,-73.757666,45.577962
43936,S. ELZEAR/M. S. AUBIN,-73.753521,45.581132
43938,S. ELZEAR/FACE AU 2055,-73.752049,45.582168
43939,S. ELZEAR/FACE AU 2055,-73.751799,45.582564
43979,P.-PELADEAU/CENTROPOLIS,-73.744933,45.563548
43980,P.-PELADEAU/TERRY-FOX,-73.744471,45.563414
43981,S. ROSE/BRETIGNY,-73.827111,45.576831
43982,S. ROSE/BRETIGNY,-73.827059,45.576651
43983,PRUDENTIEL/GIRONDE,-73.721148,45.623345
43984,CHOMEDEY/S. ELZEAR,-73.768593,45.571521
43986,PRUDENTIEL/PRAGUE,-73.725482,45.627661
43987,PRUDENTIEL/TROYES,-73.728098,45.626265
43988,PRUDENTIEL/R.-LAENNEC,-73.729311,45.625147
43989,PRUDENTIEL/R.-LAENNEC,-73.729605,45.624804
43990,PRUDENTIEL/TROYES,-73.728109,45.625968
43991,PRUDENTIEL/PRAGUE,-73.726602,45.627384
43992,PRUDENTIEL/GIRONDE,-73.722955,45.626203
43993,PRUDENTIEL/MONTEVIDEO,-73.721912,45.624801
43994,PRUDENTIEL/GIRONDE,-73.721431,45.623534
43995,R.-LAENNEC/BELLEROSE,-73.72348,45.619633
43996,R.-LAENNEC/PRUDENTIEL,-73.729208,45.624949
43997,R.-LAENNEC/LACASSE,-73.733157,45.627856
43998,LACASSE/GAP,-73.73143,45.628814
43999,LACASSE/AVEIRO,-73.728476,45.631073
44039,TERMINUS CARREFOUR,-73.748405,45.568901
44042,TERMINUS CARREFOUR,-73.748274,45.5683
44050,TERMINUS CARREFOUR,-73.747957,45.568315
44056,TERMINUS CARREFOUR,-73.748466,45.568427
44060,TERMINUS CARREFOUR,-73.748619,45.56857
44061,TERMINUS CARREFOUR,-73.747917,45.568916
44063,TERMINUS CARREFOUR,-73.747917,45.568916
44066,TERMINUS CARREFOUR,-73.748619,45.56857
44070,TERMINUS CARREFOUR,-73.748148,45.568473
44139,TERMINUS CARREFOUR,-73.748148,45.568473
44142,TERMINUS CARREFOUR,-73.74862,45.568571
44150,TERMINUS CARREFOUR,-73.748404,45.568899
44156,TERMINUS CARREFOUR,-73.749131,45.568506
44160,TERMINUS CARREFOUR,-73.749131,45.568506
44161,TERMINUS CARREFOUR,-73.748301,45.568594
44163,TERMINUS CARREFOUR,-73.748301,45.568594
44166,TERMINUS CARREFOUR,-73.748615,45.568573
44170,TERMINUS CARREFOUR,-73.747957,45.568315
44902,TERMINUS CARREFOUR,-73.748274,45.5683
44903,TERMINUS CARREFOUR,-73.747772,45.568777
44912,TERMINUS CARREFOUR,-73.748622,45.56857
44913,TERMINUS CARREFOUR,-73.747957,45.568315
45001,MONTGOLFIER/N. DAME,-73.780993,45.532601
45002,B.-D.-L'EAU/DUMAIS,-73.863203,45.522669
45003,GARE S. DOROTHEE,-73.861474,45.5232
45004,ERABLES/ORMES,-73.882945,45.52875
45005,ERABLES/PEUPLIERS,-73.881439,45.531293
45006,M.-ILES/ETIENNE,-73.668957,45.683839
45007,M.-A.-FORTIN/ROSEVAL,-73.785361,45.606394
45008,SAMSON/FACE AU 7,-73.784309,45.522316
45010,LEVESQUE/FACE AU 3494,-73.657737,45.592577
45011,TOURANGEAU/LAURENTIDES,-73.686268,45.565422
45012,CHARTRAND/MONTY,-73.578234,45.666301
45013,CHARTRAND/DÉRY,-73.576567,45.667184
45014,R.-LAENNEC/MIJAS,-73.721255,45.611359
45015,BELGRADE/LAURENTIDES,-73.740106,45.615326
45016,BELLEROSE/LAURENTIDES,-73.735077,45.611467
45017,O.-CHAUVEAU/MUNICH,-73.753,45.617025
45018,O.-CHAUVEAU/MUNICH,-73.753269,45.617052
45020,INDUSTRIEL/BERGAR,-73.745892,45.59333
45021,INDUSTRIEL/FACE AU 3600,-73.748134,45.595359
45022,DAGENAIS/GARAND,-73.757788,45.593025
45023,DAGENAIS/FACE AU 1600,-73.755385,45.594461
45024,DAGENAIS/GARAND,-73.753828,45.595878
45026,S. ELZEAR/J.-DU-BELLAY,-73.776078,45.569496
45027,S. ELZEAR/J.-DU-BELLAY,-73.776462,45.569693
45028,AVENIR/FACE AU 1695,-73.728139,45.566876
45030,S. MARTIN/TESSIER,-73.727911,45.567615
45031,S. MARTIN/AUT. 19 S.,-73.691795,45.593461
45032,S. MARTIN/AUT. 19 S.,-73.691835,45.593902
45033,PRINCIPALE/COQUELICOTS,-73.828908,45.5269
45034,S. MARTIN/FAVREAU,-73.765555,45.54951
45035,S. MARTIN/FAVREAU,-73.765364,45.549708
45036,S. ROSE/STEPHANIE,-73.843917,45.566917
45037,DAGENAIS/FACE AU 2040,-73.765163,45.588626
45038,DAGENAIS/FACE AU 2010,-73.761917,45.590559
45039,DAGENAIS/FACE AU 2005,-73.762174,45.590775
45040,DAGENAIS/FACE AU 2025,-73.765228,45.588959
45041,ROSSIGNOLS/VIREO,-73.771501,45.590069
45042,S. MARTIN/FACE AU 1565,-73.726482,45.568859
45043,CARTIER/MICRO,-73.720459,45.545628
45044,C.-CHARBONNEAU/B.-D.-L'EAU,-73.780565,45.521111
45045,SAMSON / FACE AU 9,-73.784499,45.522055
45046,LEVESQUE/SEINE,-73.745424,45.532296
45050,J.-DESNOYERS/FACE AU 160,-73.674918,45.561337
45051,J.-DESNOYERS/FACE AU 180,-73.674062,45.562157
45052,J.-DESNOYERS/FACE AU 300,-73.673193,45.562996
45053,J.-DESNOYERS/FACE AU 400,-73.672402,45.563987
45054,J.-DESNOYERS/FACE AU 520,-73.671996,45.565139
45058,D. JOHNSON/FACE AU LEON,-73.748611,45.560959
45059,M. MOULIN/LA PERIERE,-73.58161,45.675477
45060,M. MOULIN/GALERIES MOULIN,-73.582998,45.677052
45061,M. MOULIN/LA PERIERE,-73.581983,45.675647
45062,M. MOULIN/M.-BARBEAU,-73.579926,45.67366
45063,D. JOHNSON/FACE AU CENTRE 2005,-73.748784,45.56167
45065,BELLEVILLE/BOISSY,-73.645827,45.606154
45066,PRINCIPALE/MAURICE,-73.819936,45.529511
45067,PLACE PAUL-KANE,-73.650604,45.633167
45068,M.-CULLEN/E.-CORMIER,-73.651542,45.628813
45069,M.-CULLEN/FACE AU 5555,-73.6493,45.626782
45071,S. FRANCOIS/FACE AU 400,-73.649032,45.620727
45072,M.-CULLEN/E.-CORMIER,-73.651704,45.62921
45074,S. FRANCOIS/M.-CULLEN,-73.652293,45.623712
45076,E.-CORMIER/FACE AU 5540,-73.653323,45.628144
46007,SAMSON/LEVESQUE,-73.755552,45.52952
46008,SAMSON/2E RUE,-73.753969,45.530639
46009,SAMSON/95E AV.,-73.753946,45.531053
46010,SAMSON/LEVESQUE,-73.755515,45.52988
46011,SAMSON/GRAVEL,-73.81691,45.52412
46012,N. DAME/CHARLES-BEST,-73.736906,45.544771
46013,N. DAME/FACE AU 3050,-73.734876,45.546234
46014,N. DAME/FACE AU 2999,-73.73224,45.548841
46015,N. DAME/A.-FRAPPIER,-73.729019,45.550183
46016,CONCORDE/CORBUSIER,-73.721463,45.554769
46018,CONCORDE/L-PAIEME.,-73.719866,45.556019
46019,N. DAME/FACE AU 2999,-73.733597,45.548464
46020,N. DAME/FACE AU 3055,-73.735624,45.5458
46021,N. DAME/A.-GOLDBLOOM,-73.738036,45.544623
46022,GARE VIMONT,-73.742725,45.604111
46023,RIO / CYRILLE-DELAGE,-73.741347,45.608619
46024,P.-KANE/FACE AU 800,-73.650192,45.633012
46025,P.-KANE/E.-CORMIER,-73.649036,45.631623
46028,E.-CORMIER/S. FRANCOIS,-73.654746,45.627445
46029,S. FRANCOIS/M.-CULLEN,-73.652837,45.623979
46030,S. FRANCOIS/FACE AU 400,-73.649199,45.620645
46031,LEVESQUE/MONTROSE,-73.661787,45.587776
46032,M.-CULLEN/FACE AU 5570,-73.648702,45.62654
46033,E.-CORMIER/P.-KANE,-73.648932,45.631336
46035,METRO CONCORDE,-73.709059,45.562261
46036,AMPERE/SAUMUR,-73.710542,45.564912
46037,AMPERE/CHAMONIX,-73.709985,45.566578
46038,AMPERE/SOUVENIR,-73.709516,45.567974
46039,AMPERE/PERIGUEUX,-73.71084,45.569213
46040,AMPERE/CHEVILLON,-73.712653,45.570874
46041,FLEETWOOD/CHEVILLON,-73.710929,45.572488
46042,V. DESSERTE S. MARTIN/FLEETWOOD,-73.714372,45.574965
46043,V. DESSERTE S. MARTIN/SILLERY,-73.714605,45.575379
46044,SILLERY/BASTOGNE,-73.716857,45.577966
46045,SILLERY/TRIPOLI,-73.71672,45.579347
46046,TRIPOLI/SAUREL,-73.718586,45.58104
46047,TRIPOLI/VALOIS,-73.721119,45.583339
46048,VALOIS/MEXICO,-73.719317,45.584494
46049,MEXICO/FACE AU 2271,-73.720688,45.586092
46050,MEXICO/VILLARS,-73.721517,45.586839
46051,VILLARS/VALLIERES,-73.720397,45.587758
46052,VALLIERES/VOLTAIRE,-73.718645,45.586403
46053,VALLIERES/VALOGNE,-73.716656,45.585813
46054,VALLIERES/RICHARD,-73.714576,45.584692
46055,VALLIERES/RENAUD,-73.712939,45.582302
46056,VALLIERES/SILLERY,-73.712906,45.580169
46057,VALLIERES/S. MARTIN,-73.71072,45.578257
46058,VALOIS/TRIPOLI,-73.721044,45.583779
46059,TRIPOLI/SAUREL,-73.719022,45.581174
46060,TRIPOLI/SILLERY,-73.716707,45.5791
46062,FLEETWOOD/FACE AU 1685,-73.713075,45.574149
46063,FLEETWOOD/CHEVILLON,-73.71098,45.572263
46064,CHEVILLON/AMPERE,-73.712794,45.571018
46065,AMPERE/CHEVILLON,-73.711212,45.569329
46066,AMPERE/CHAMONIX,-73.70996,45.566839
46067,AMPERE/SAUMUR,-73.710825,45.565065
46068,METRO CONCORDE,-73.708878,45.561748
46069,INDUSTRIEL/FACE AU 4078,-73.752992,45.599862
46070,INDUSTRIEL/DAGENAIS,-73.751236,45.598214
46071,DAGENAIS/GARAND,-73.753996,45.596219
46072,DAGENAIS/FACE AU 1605,-73.755668,45.594659
46073,DAGENAIS/GARAND,-73.757636,45.593485
46074,CORBUSIER/DAGENAIS,-73.759205,45.591607
46075,BERLIER/CORBUSIER,-73.747083,45.58211
46076,BERLIER/BERGMAN,-73.745543,45.583109
46077,BERLIER/FACE AU 1400,-73.743309,45.58495
46078,BERLIER/FACE AU 1146,-73.742082,45.585933
46079,BERLIER/INDUSTRIEL,-73.739707,45.587783
46080,ROBIN/AMPERE,-73.70345,45.557001
46081,ROBIN/PERRIN,-73.700859,45.558262
46082,ROBIN/15E RUE,-73.698634,45.559346
46083,ROBIN/15E RUE,-73.699262,45.559354
46084,ROBIN/PERRIN,-73.700848,45.558586
46085,ROBIN/AMPERE,-73.70391,45.55709
46087,INDUSTRIEL/DAGENAIS,-73.751281,45.598639
46088,INDUSTRIEL/FACE AU 4133,-73.75283,45.599971
46094,INDUSTRIEL/FACE AU 4000,-73.750245,45.597253
46095,INDUSTRIEL/BERLIER,-73.739836,45.587944
46096,INDUSTRIEL/CUNARD,-73.732954,45.581948
46097,INDUSTRIEL/MUNCK,-73.729817,45.579266
46099,INDUSTRIEL/CUNARD,-73.732288,45.581967
46100,INDUSTRIEL/BERLIER,-73.73931,45.587981
46101,INDUSTRIEL/S. ELZEAR,-73.741265,45.589651
46102,INDUSTRIEL/MICHELIN,-73.743774,45.591904
46103,INDUSTRIEL/BERGAR,-73.746018,45.593936
46104,INDUSTRIEL/FACE AU 3885,-73.747632,45.595389
46105,INDUSTRIEL/FACE AU 4001,-73.74982,45.597371
46106,PRINCIPAL/FACE A 195,-73.800327,45.535152
46109,N. DAME/A.-FRAPPIER,-73.729458,45.550261
46110,PIE-IX/AMBASSADEURS,-73.675999,45.624477
46111,PIE-IX/DUCHESSE,-73.673606,45.622069
46112,PIE-IX/DUCHESSE,-73.673067,45.622024
46113,PIE-IX/AMBASSADEURS,-73.675447,45.624441
46114,S. MARTIN/LESAGE,-73.667649,45.611073
46115,S. MARTIN/FACE AU 3450,-73.671977,45.609384
46116,S. MARTIN/JOLICOEUR,-73.675791,45.607191
46117,S. MARTIN/AUTEUIL,-73.677272,45.605236
46118,S. MARTIN/JOLICOEUR,-73.675196,45.607249
46119,S. MARTIN/FACE AU 3751,-73.671874,45.609096
46120,S. MARTIN/LESAGE,-73.667099,45.61094
46121,DAGENAIS/47E AV.,-73.864397,45.54903
46122,DAGENAIS/59E AVENUE,-73.860297,45.550762
46123,DAGENAIS/PANNETON,-73.857001,45.551969
46124,DAGENAIS/MAHEUX,-73.850497,45.554383
46125,DAGENAIS/FACE AU 4485,-73.847737,45.555462
46126,DAGENAIS/FACE AU 4476,-73.845781,45.55617
46127,DAGENAIS/URGEL,-73.838612,45.558837
46128,DAGENAIS/RUSSELL,-73.833461,45.560759
46129,DAGENAIS/M. SAURIOL,-73.829006,45.563418
46130,DAGENAIS/M. SAURIOL,-73.828893,45.563814
46131,DAGENAIS/RUSSELL,-73.833216,45.561
46132,DAGENAIS/URGEL,-73.838689,45.558989
46133,DAGENAIS/FACE AU 4463,-73.845769,45.556314
46134,DAGENAIS/FACE AU 4499,-73.848057,45.55547
46135,DAGENAIS/MAHEUX,-73.850459,45.554563
46136,DAGENAIS/PANNETON,-73.856848,45.552176
46137,DAGENAIS/1RE AV.,-73.860209,45.550915
46138,DAGENAIS/A. SAUVE,-73.864923,45.549091
46139,FAFARD/FAUTEUX,-73.772301,45.548693
46140,FAFARD/L.-PAYETTE,-73.774911,45.550827
46141,FAFARD/GENDREAU,-73.775879,45.554929
46142,FAFARD/FAVREAU,-73.773797,45.556149
46143,FAVREAU/FAVREAU,-73.772318,45.555046
46144,TESSIER/DUMOUCHEL,-73.737328,45.570682
46145,TESSIER/BACH,-73.734914,45.571695
46147,TESSIER/BACH,-73.735667,45.571792
46148,TESSIER/CORBUSIER,-73.738262,45.570392
46149,FAVREAU/GOYER,-73.774168,45.556094
46150,FAFARD/GENDREAU,-73.775769,45.555166
46151,FAFARD/LEGARE,-73.777356,45.553189
46152,FAFARD/FAUTEUX,-73.772685,45.548773
46153,FAFARD/S. MARTIN,-73.771721,45.547947
46154,BLOIS/CHAMPLAIN,-73.677336,45.593142
46155,BLOIS/RICHER,-73.67823,45.591935
46156,BLOIS/MAURICIE,-73.679816,45.590916
46157,F.-SEGUIN/FISET,-73.685941,45.586758
46158,F.-SEGUIN/V.-MORIN,-73.687354,45.585719
46159,F.-SEGUIN/N.-D.-FATIMA,-73.688192,45.585279
46160,F.-SEGUIN/V.-MORIN,-73.68748,45.585493
46161,F.-SEGUIN/FISET,-73.685915,45.586497
46162,F.-SEGUIN/MESY,-73.685791,45.587775
46163,BLOIS/MAURICIE,-73.679802,45.590718
46164,BLOIS/RICHER,-73.678229,45.591746
46165,BLOIS/CHAMPLAIN,-73.677169,45.59299
46166,H.-MERCIER/C.-H.-GRIGNON,-73.782629,45.606068
46167,H.-MERCIER/ A.-BUIES,-73.78213,45.604294
46168,H.-MERCIER/RENAISSANCE,-73.781519,45.601968
46169,RENAISSANCE/PATRIOTES,-73.778288,45.601894
46170,RENAISSANCE/FACE AU 2929,-73.775577,45.603341
46171,ROSSIGNOLS/PASSERIN,-73.774369,45.602687
46172,ROSSIGNOLS/BERNACHES,-73.773895,45.601064
46173,ROSSIGNOLS/VOLIERE,-73.773364,45.599009
46174,ROSSIGNOLS/FAISAN,-73.772959,45.597318
46175,ROSSIGNOLS/PERDRIOLE,-73.772859,45.595887
46176,ROSSIGNOLS/PERDRIOLE,-73.77275,45.594123
46177,ROSSIGNOLS/OISEAUX,-73.772293,45.592137
46178,ROSSIGNOLS/DAGENAIS,-73.769458,45.586608
46179,ROSSIGNOLS/DAGENAIS,-73.768815,45.585384
46180,MICHELIN/ROSSIGNOLS,-73.767172,45.582602
46181,MICHELIN/FACE AU 2460,-73.764977,45.584273
46182,MICHELIN/CHATELIER,-73.76245,45.58483
46183,MICHELIN/M. S. AUBIN,-73.758647,45.584682
46184,MICHELIN/DELAUNEY,-73.755408,45.585481
46186,CONCORDE/LAVAL,-73.712968,45.559329
46187,MICHELIN/CORBUSIER,-73.754182,45.58633
46189,MICHELIN/M. S. AUBIN,-73.758225,45.5848
46190,MICHELIN/CHATELIER,-73.762134,45.585007
46191,MICHELIN/FACE AU 2465,-73.765173,45.584358
46192,MICHELIN/ROSSIGNOLS,-73.767813,45.58269
46193,ROSSIGNOLS/DAGENAIS,-73.768623,45.585533
46194,ROSSIGNOLS/OISEAUX,-73.771997,45.591913
46195,ROSSIGNOLS/PERDRIOLE,-73.772494,45.593954
46196,ROSSIGNOLS/PERDRIOLE,-73.772618,45.595726
46197,ROSSIGNOLS/FAISAN,-73.772698,45.597134
46198,ROSSIGNOLS/VOLIERE,-73.773068,45.598821
46199,ROSSIGNOLS/BERNACHES,-73.773601,45.600916
46200,ROSSIGNOLS/PASSERIN,-73.774125,45.602561
46201,RENAISSANCE/FACE AU 2929,-73.775309,45.603512
46202,RENAISSANCE/PATRIOTES,-73.778033,45.602111
46203,RENAISSANCE/H.-MERCIER,-73.78121,45.60177
46204,H.-MERCIER/A.-BUIES,-73.781618,45.603911
46205,H.-MERCIER/C.-H.-GRIGNON,-73.782346,45.605952
46214,OISEAUX/CHOUCAS,-73.769261,45.593323
46215,OISEAUX/PIVERTS,-73.769434,45.594681
46216,OISEAUX/VOLIERE(EST),-73.768598,45.596956
46217,OISEAUX/CARDINAUX,-73.765283,45.597723
46218,OISEAUX/EQUERRE,-73.762494,45.598359
46219,CORBUSIER/ORIOLES,-73.761521,45.594963
46220,CORBUSIER/PETITE-COTE,-73.76129,45.59416
46221,CORBUSIER/DAGENAIS,-73.76032,45.592523
46222,CORBUSIER/PETITE-COTE,-73.760894,45.594017
46223,CORBUSIER/ORIOLES,-73.761227,45.595285
46224,EQUERRE/OISEAUX,-73.763074,45.598481
46225,OISEAUX/CARDINAUX,-73.765002,45.598039
46226,OISEAUX/VOLIERE(EST),-73.768311,45.597259
46227,OISEAUX/PIVERTS,-73.769794,45.594824
46228,OISEAUX/CHOUCAS,-73.769576,45.593567
46229,OISEAUX/ROSSIGNOLS,-73.771983,45.592134
46238,S.MARTIN/CAROLE,-73.823017,45.533299
46239,ST-MARTIN/VIOLETTE,-73.821408,45.533916
46240,S. MARTIN/H.-DE-VILLE,-73.819556,45.534686
46241,H.-DE-VILLE/MUGUET,-73.817843,45.533017
46242,H.-DE-VILLE/PRINCIPALE,-73.815693,45.530791
46243,D.-JOHNSON/S. MARTIN,-73.744965,45.558269
46244,H.-DE-VILLE/MUGUET,-73.817459,45.533018
46245,H.-DE-VILLE/S. MARTIN,-73.818824,45.5344
46246,ST-MARTIN/VIOLETTE,-73.821333,45.534267
46247,S.MARTIN/CAROLE,-73.823198,45.533578
46260,N.D.FATIMA/S. MARTIN,-73.694695,45.590829
46261,N.-D.-DE-FATIMA/KIROUAC,-73.69143,45.587892
46262,N.D.FATIMA/S. MARTIN,-73.694876,45.591224
46263,MONTROUGEAU/STE-ROSE,-73.816509,45.582683
46264,DAGENAIS /ERICKA,-73.786546,45.579756
46265,DAGENAIS/FACE AU 2896,-73.782412,45.580806
46266,DAGENAIS/W.-PRICE,-73.774993,45.583528
46268,CORBUSIER/CARREFOUR,-73.740777,45.572446
46269,DAGENAIS/W.-PRICE,-73.774739,45.583897
46270,DAGENAIS/FACE AU 2907,-73.782326,45.580961
46271,DAGENAIS/FORAND,-73.786624,45.579963
46272,B.-D.-L'EAU/MAISONNEUVE,-73.811056,45.520294
46273,B.-D.-L'EAU/JANSON,-73.807374,45.519557
46274,B.-D.-L'EAU/MAISONNEUVE,-73.811244,45.520401
46275,C. LABELLE/CLOUTIER,-73.791563,45.608367
46276,C. LABELLE/M.-A.-FORTIN,-73.790666,45.605043
46277,C. LABELLE/M.-A.-FORTIN,-73.790317,45.605302
46278,C. LABELLE/ROI-DU-NORD,-73.790852,45.607055
46280,JOLIBOURG/B.-D.-L'EAU,-73.852842,45.523862
46281,JOLIBOURG/MATANE,-73.859249,45.528935
46282,JOLIBOURG/MATANE,-73.86123,45.530458
46283,S. ANTOINE/A. SAUVE,-73.857606,45.540395
46284,S. ANTOINE/F.-PESSOA,-73.860799,45.539044
46285,S. ANTOINE/F.-PESSOA,-73.862768,45.53866
46286,S. ANTOINE/FACE AU PARC LAVAL-OUEST,-73.867026,45.537783
46287,S. ANTOINE/17E AVE,-73.869045,45.537038
46288,S. ANTOINE/M.-LEFRANC,-73.871343,45.536032
46289,S. ANTOINE/3E AVE,-73.87542,45.535011
46290,S. ANTOINE/3E AVE,-73.8753,45.534889
46291,S. ANTOINE/M.-LEFRANC,-73.871418,45.535834
46292,S. ANTOINE/A.-MAUROIS,-73.869197,45.536867
46293,S. ANTOINE/PARC LAVAL-OUEST,-73.866987,45.537675
46294,S. ANTOINE/F.-PESSOA,-73.862857,45.538525
46295,S. ANTOINE/F.-PESSOA,-73.86076,45.538936
46296,S. ANTOINE/A. SAUVE,-73.857158,45.540433
46297,JOLIBOURG/MATANE,-73.861653,45.530466
46298,JOLIBOURG/MATANE,-73.859621,45.529006
46299,JOLIBOURG/VAL-BRILLANT,-73.857949,45.527868
46300,MIRELLE / CHARTRAND,-73.581241,45.665116
46301,CHARTRAND/M. MOULIN,-73.574408,45.668197
46302,ROSSIGNOLS/VIREO,-73.771806,45.590325
46303,RIO/RIO,-73.745329,45.612079
46304,AVENIR/SOUVENIR,-73.723162,45.562018
46305,BELGRADE/C. DELAGE,-73.741757,45.614656
46306,S. FRANCOIS/FACE AU 161,-73.647824,45.619639
46307,C. LABELLE/FACE AU 3805,-73.784841,45.571905
46308,C. LABELLE/FACE AU 707,-73.78599,45.589629
46309,C. LABELLE/FACE AU 707,-73.786214,45.588884
46311,PIE-IX/EMPEREUR,-73.678538,45.626834
46312,PIE-IX/SENATEUR,-73.677131,45.625528
46313,PIE-IX/CAPORAL,-73.676579,45.625492
46314,PIE-IX/EMPEREUR,-73.678322,45.626974
46315,MICHELIN/DELAUNEY,-73.756061,45.585327
46316,C. LABELLE/RENAISSANCE,-73.789697,45.601555
46317,C. LABELLE/RENAISSANCE,-73.789459,45.602228
46318,C. LABELLE/S.-ROSE,-73.792177,45.610444
46319,C. LABELLE/SAINTE-ROSE,-73.792064,45.610876
46320,AMPERE/SOUVENIR,-73.709823,45.567991
46321,FLEETWOOD/FACE AU 1685,-73.712903,45.574274
46322,H.-DE-VILLE/PRINCIPALE,-73.815257,45.530712
46323,COUSTEAU/S. ROSE,-73.84228,45.568103
46324,DES ILES/LEVESQUE,-73.750724,45.529261
46325,S. ROSE/STEPHANIE,-73.84374,45.567139
46326,GABRIEL/GILLES,-73.792877,45.582305
46327,LEVESQUE/ AUTEUIL,-73.660509,45.589316
46328,D. JOHNSON/S. MARTIN,-73.745081,45.557878
46329,S. FRANCOIS/E.-CORMIER,-73.655499,45.626612
46330,GARE S. ROSE,-73.765828,45.625801
46331,GARE S. ROSE,-73.765714,45.625637
46332,CHOMEDEY/S. ELZEAR,-73.768518,45.571936
46333,M.-CULLEN/FACE AU 5555,-73.649375,45.626849
46334,M.-CULLEN/FACE AU 5570,-73.64739,45.625102
46335,M.-CULLEN/FACE AU 5570,-73.648691,45.626526
46336,E.-CORMIER/FACE AU 5540,-73.653578,45.628177
46337,S. FRANCOIS/FACE AU 200,-73.647841,45.619444
46339,M.-CULLEN/FACE AU 5570,-73.647139,45.625153
46340,DAGENAIS/FACE AU 4690,-73.854129,45.553048
46341,DAGENAIS/FACE AU 4690,-73.854107,45.553202
46342,LAURENTIDES/BERGERON,-73.748312,45.653128
46343,LAURENTIDES/BERGERON,-73.748118,45.652741
46344,BELLEROSE/CASTELLANE,-73.741839,45.606801
46345,BELLEROSE/CASTELLANE,-73.741891,45.607034
46347,LEVESQUE/70E AV.,-73.730732,45.536772
46349,LEVESQUE/CURE-LABELLE,-73.731449,45.536878
46350,M.-CULLEN/E.-CORMIER,-73.651775,45.629276
46353,VANIER/CHENIER,-73.659669,45.61373
46354,LEVESQUE/77E AV.,-73.736999,45.535208
46355,CORBUSIER/CARREFOUR,-73.741667,45.572796
46356,CHATEAUX/CHOMEDEY,-73.748015,45.553769
46364,EMPEREUR/SENATEUR,-73.682043,45.625895
46365,EMPEREUR/AMBASSADEURS,-73.683887,45.624914
46366,AMBASSADEURS/GENERAUX,-73.681737,45.622173
46367,GOUVERNEURS / GENERAUX,-73.682513,45.620345
46368,GOUVERNEURS/ADJUDANT,-73.680483,45.619278
46369,GOUVERNEURS/VICOMTE,-73.679617,45.61711
46370,GOUVERNEURS/ARISTOCRATES,-73.679384,45.6164
46376,GOUVERNEURS/VICOMTE,-73.679102,45.616355
46377,GOUVERNEURS/ADJUDANT,-73.680137,45.619179
46378,GOUVERNEURS/GENERAUX,-73.682578,45.620597
46379,AMBASSADEURS/GENERAUX,-73.681673,45.622362
46380,AMBASSADEURS/EMPEREUR,-73.683784,45.624734
46381,EMPEREUR/SENATEUR,-73.682132,45.625646
46382,GARE VIMONT,-73.742823,45.604216
46383,BOUCMONTGOLFIER,-73.780644,45.532812
46384,H.-BOURASSA/OSCAR,-73.650461,45.582926
46385,H.-BOURASSA/OSCAR,-73.650912,45.583098
46386,MASSON/BOISCLERC,-73.638079,45.661358
46387,MASSON/BOISCLERC,-73.637951,45.661628
46388,DAGENAIS/INDUSTRIEL,-73.750092,45.598505
46389,DAGENAIS/INDUSTRIEL,-73.749613,45.599171
46390,L.-PAYETTE/C. LABELLE,-73.767288,45.556669
46391,R.-LAENNEC/CHAVILLE,-73.731358,45.626852
46392,R.-LAENNEC/CHAVILLE,-73.73178,45.626744
46393,FAVREAU/FAVREAU,-73.771934,45.554957
46394,FAVREAU/L.-PAYETTE,-73.770853,45.553879
46395,M.-CULLEN/E.-CORMIER,-73.651478,45.628741
46396,BELGRADE/RIO,-73.746072,45.613252
46397,TERRASSES/SICARD,-73.764944,45.634797
46398,TERRASSES/SICARD,-73.765007,45.634554
46399,S. FRANCOIS/PENITENCIER,-73.646487,45.618408
46400,MASSON/M.-VILLENEUVE,-73.643863,45.652475
46401,MASSON/M.-VILLENEUVE,-73.643505,45.652672
46402,ROSSIGNOL/FACE  5755,-73.769628,45.587113
46403,P E BORDUAS / S.ROSE,-73.800909,45.603448
46406,PRINCIPAL/MARJOLAINE,-73.804798,45.533323
46407,PRINCIPAL/MARJOLAINE,-73.805002,45.533187
46408,SOUVENIR/FACE 5275,-73.778205,45.533282
46409,ACADEMIE E.D.NORD,-73.780112,45.530506
46410,E-BOUCHER/ATS,-73.77638,45.526906
46411,S.ELZEAR/A.D.MUSSET,-73.767162,45.572893
46412,S.ELZEAR/A.D.MUSSET,-73.767494,45.572892
46413,DAGENAIS/LINDBERGH,-73.784103,45.580554
46414,DAGENAIS/LINDBERGH,-73.784024,45.580453
46415,R.-LAENNEC/FACE AU 2932,-73.726698,45.622615
46416,R.-LAENNEC/FACE AU 2932,-73.727057,45.622506
46417,S.HUBERT/S.EUSEBE,-73.678524,45.55946
46418,S.HUBERT/S.EUSEBE,-73.67828,45.559379
46419,CHOM/Q.-ST-MARTIN,-73.753135,45.557965
46420,INDUSTRIEL/FACE AU 4177,-73.753896,45.600933
46421,INDUSTRIEL/FACE AU4184,-73.75437,45.601169
46422,S.MARTIN/FACE AU 2800,-73.740425,45.560903
46423,LAURENTIDES/DE ROME,-73.682579,45.561685
46424,C.LABELLE/SIMONE DE BEAUVOIR,-73.783231,45.570406
46425,FRANCIS-HUGHES/DAGENAIS,-73.74671,45.601074
46426,DAGENAIS/FACE AU 1240,-73.747996,45.599843
46428,CHOMEDEY/FACE AU 2350,-73.757567,45.561469
46429,CHOMEDEY/FACE AU 2350,-73.757308,45.56172
46430,RENAISSANCE/M.-A.-FORTIN,-73.801265,45.60054
46432,E-BOUCHER/SAMSON,-73.774417,45.525643
46433,P E BORDUAS / M.-A.-FORTIN,-73.800561,45.603062
46434,P E BORDUAS / M.-A.-FORTIN,-73.800189,45.603018
46435,P E BORDUAS / RENAISSANCE,-73.79782,45.601215
46436,RENAISSANCE/FACE AU 4370,-73.798473,45.600899
46437,LAURENTIDES/REMILLARD,-73.750575,45.647023
46438,LAURENTIDES/REMILLARD,-73.75044,45.646896
46439,PRINCIPALE/FACE AU 180,-73.800211,45.535089
46440,V. DESSERTE S. MARTIN/FACE AU 666,-73.715598,45.573847
46441,E-BOUCHER/CLARINS,-73.779276,45.529716
46443,AVENIR/J.-TETREAULT,-73.720808,45.559593
46444,AVENIR/LETENDRE,-73.722403,45.561219
46445,YVON-BERGER/GALARNEAU,-73.788383,45.591013
46446,M.-A.-FORTIN/C.-DAUDELIN,-73.79229,45.590207
46447,M.-A.-FORTIN/J.-P.-LEMIEUX,-73.793881,45.59059
46448,M.-A.-FORTIN/ALPHONSE-DEGUIRE,-73.796446,45.591677
46449,M.-A.-FORTIN/JEAN DALLAIRE,-73.799754,45.593544
46450,M.-A.-FORTIN/HENRI JULIEN,-73.799801,45.595109
46451,M.-A.-FORTIN/ARTHUR VILLENEUVE,-73.799376,45.597198
46452,M.-A.-FORTIN/FACE AU 650,-73.80001,45.59925
46453,M.-A.-FORTIN/RENAISSANCE,-73.800941,45.600528
46455,M.-A.-FORTIN/RENAISSANCE,-73.801097,45.60028
46456,M.-A.-FORTIN/ARTHUR VILLENEUVE,-73.800503,45.599391
46457,M.-A.-FORTIN/FACE AU 707,-73.799621,45.597354
46458,M.-A.-FORTIN /LOUIS PAUL PERRON,-73.799875,45.595348
46459,M.-A.-FORTIN /JEAN DALLAIRE,-73.800015,45.593626
46460,M.-A.-FORTIN /ALPHONSE DEGUIRE,-73.796821,45.591664
46461,M.-A.-FORTIN /LEO-AYOTTE,-73.795141,45.590955
46462,M.-A.-FORTIN/C.-DAUDELIN,-73.792584,45.590044
46463,YVON BERGER/GALARNEAU,-73.788422,45.590774
46470,CARREFOUR/FACE AU 3030,-73.750522,45.567594
46471,S.ROSE/LAURENTIDES,-73.75296,45.630152
46472,CARREFOUR/CHOMEDEY,-73.758801,45.561907
46473,CARREFOUR/VOLVO,-73.758312,45.561953
46474,CARREFOUR/A.-MURPHY,-73.762194,45.55938
46475,BEAUBIEN/ROSERAIES,-73.555693,45.596254
46476,GALERIES D'ANJOU/J.-TALON,-73.567758,45.598821
46477,GALERIES D'ANJOU/JARRY,-73.575684,45.602181
46478,GALERIES D'ANJOU/BOMBARDIER,-73.585484,45.606431
46479,GALERIES D'ANJOU/BOMBARDIER,-73.586228,45.606421
46480,GALERIES D'ANJOU/JARRY,-73.575671,45.601911
46481,GALERIES D'ANJOU/J.-TALON,-73.568347,45.598776
46482,BEAUBIEN/ROSERAIES,-73.555027,45.596488
46483,E.-CORMIER/FACE AU 6810,-73.645792,45.633055
46484,B.-LEFEBVRE/FACE AU 2555,-73.644982,45.634238
46485,B.-LEFEBVRE/FACE AU 4000,-73.646597,45.636419
46486,B.-LEFEBVRE/MASSON,-73.641942,45.636855
46487,B.-LEFEBVRE/FACE AU 1855,-73.643492,45.632949
46488,E.-CORMIER/FACE AU 6810,-73.646109,45.633083
46489,E.-CORMIER/P.-KANE,-73.648609,45.631711
46490,E.-CORMIER/FACE AU 6810,-73.64581,45.633046
46491,B.-LEFEBVRE/FACE AU 2555,-73.644919,45.634183
46492,B.-LEFEBVRE/FACE AU 4000,-73.646668,45.636368
46493,B.-LEFEBVRE/MASSON,-73.641984,45.636854
46494,MASSON/VERNER,-73.641518,45.634558
46495,MASSON/B.-LEFEBVRE,-73.641172,45.632167
46496,B.-LEFEBVRE/FACE AU 1855,-73.643476,45.63293
46497,E.-CORMIER/FACE AU 6810,-73.646066,45.633107
46498,E.-CORMIER/P.-KANE,-73.648569,45.631728
46499,AUTOROUTE 25/M.-DUPLESSIS,-73.604898,45.622521
46500,AUTOROUTE 25/M.-DUPLESSIS,-73.604258,45.623332
46501,J.-BUREAU/D.JOHNSON,-73.760985,45.572593
46502,J.-BUREAU/FACE AU 3020,-73.757262,45.574974
46503,J.-BUREAU/D. JOHNSON,-73.761206,45.572681
46504,J.-BUREAU/FACE AU 3020,-73.757834,45.574821
46505,C.LABELLE/SIMONE DE BEAUVOIR,-73.783762,45.570418
46506,PARC-DES-ERABLES/FACE AU 58,-73.767412,45.63595
46507,PARC-DES-ERABLES/EMILE-JOLY,-73.76754,45.635673
46509,AVENIR/J.-TETREAULT,-73.720821,45.559584
46511,BELLEROSE/FACE AU 190,-73.7455,45.602725
46512,BELLEROSE/FACE AU 225,-73.745412,45.602906
46513,AUTOROUTE 25/LARREY,-73.588597,45.612934
46514,AUTOROUTE 25/LARREY,-73.587687,45.613565
46515,AUTOROUTE440/MASSON,-73.643598,45.646846
46517,RTE125/STATIONNEMENT,-73.662803,45.611296
46518,CHOMEDEY / CHENONCEAU,-73.756461,45.560463
46519,CHOM/Q.-ST-MARTIN,-73.753374,45.557708
46520,CHOMEDEY/CHENONCEAU,-73.755897,45.560483
46523,SEGUIN/45E AV.,-73.837266,45.573697
46524,SEGUIN/USINE,-73.835445,45.575565
46525,SEGUIN/USINE,-73.835624,45.575474
46526,SEGUIN/45E AV.,-73.837203,45.573886
46527,SEGUIN/43E AV.,-73.838391,45.573307
46528,AUTOROUTE 25/PERRAS,-73.612401,45.629713
46529,AUTOROUTE 25/PERRAS,-73.610143,45.628905
46530,COSMODOME/P.-PELADEAU,-73.745211,45.564716
46531,COSMODOME / P.-PELADEAU,-73.744733,45.565219
46532,B.-D.-L'EAU/GERANIUMS,-73.837439,45.521263
46533,B.-D.-L'EAU/GERANIUMS,-73.838053,45.521279
46534,SAINT-ELZÉAR/ELSA-TRIOLET,-73.773942,45.569645
46535,SAINT-ELZÉAR/ELSA-TRIOLET,-73.773832,45.569863
46536,RENAUDE-LAPOINTE/BOMBARDIER,-73.583305,45.60905
46537,BOMBARDIER/JUSTINE-LACOSTE,-73.583422,45.608432
46538,DES AMBASSADEURS/DU MONARQUE,-73.682515,45.623553
46539,DES AMBASSADEURS/DU MONARQUE,-73.682887,45.623625
46540,TERMINUS 9E AVENUE,-73.768491,45.642632
46541,TERMINUS 9E AVENUE,-73.768336,45.641939
46544,R.-BOU./DALI,-73.688196,45.611948
46545,R.-BOU./BUR.ENGROS,-73.689513,45.611245
46546,R-BOU./INTERSPORT,-73.698201,45.609316
46547,R-BOU/WAL-MART,-73.699869,45.610842
46548,R.-BOU/FACE AU IGA,-73.700595,45.611812
46549,R.-BOU./H.-S.-F.,-73.700665,45.615599
46550,DU HAUT-SAINT-FRANÇOIS/TERMINUS,-73.702592,45.613796
46551,DU HAUT-SAINT-FRANÇOIS/TERMINUS,-73.702336,45.613907
46552,H.-S.-F./R.-Boura.,-73.700935,45.615446
46553,R-BOU./FACE AU IGA,-73.700928,45.611956
46554,R.-BOU./WAL-MART,-73.700292,45.610903
46555,R.-BOU./INTERSPORT,-73.698623,45.60934
46556,R-B/BUREAU EN GROS,-73.689317,45.611095
46557,R.-BOU./DALI,-73.687935,45.611835
46558,MASSON/B.-LEFEBVRE,-73.641856,45.637086
46559,B-LEFEBVRE/FACE AU 4000,-73.646599,45.636628
46560,B-LEFEBVRE/E-CORMIER,-73.644903,45.633915
46561,E-CORMIER/M-CULLEN,-73.651859,45.629555
46562,E-CORMIER/M-CULLEN,-73.652142,45.629043
46563,TERMINUS CLÉROUX,-73.800388,45.550713
46564,CLÉROUX/CHERRIER,-73.796466,45.55306
46565,CLÉROUX/CUVILLIER,-73.795256,45.553794
46566,CLÉROUX/BUTEAU,-73.793292,45.554688
46567,CLÉROUX/LAMONTAGNE,-73.790651,45.555418
46568,CLÉROUX/GUÉNETTE,-73.787099,45.556452
46569,CLÉROUX/LÉGARÉ,-73.783313,45.557544
46570,LOUIS-PAYETTE/100E,-73.778852,45.548679
46571,100E/SAINT-MARTIN,-73.777703,45.546841
46572,100E/DUTRISAC,-73.775764,45.545355
46573,100E/E.-PARISEAU,-73.772074,45.544247
46574,100E/ELIOT,-73.770225,45.542793
46575,100E/DU SOUVENIR,-73.767754,45.54026
46576,100E/DE NORMANDIE,-73.765905,45.538704
46577,100E/DE NORMANDIE,-73.76547,45.538588
46578,100E/DU SOUVENIR,-73.767409,45.540287
46579,100E/ELIOT,-73.769784,45.54275
46580,100E/HENRI-DUPLESSIS,-73.771647,45.544284
46581,100E/DUTRISAC,-73.775398,45.545434
46582,100E/SAINT-MARTIN,-73.777222,45.546748
46583,100E/LOUIS-PAYETTE,-73.779064,45.548307
46584,LOUIS-PAYETTE/FAFARD,-73.775261,45.550649
46585,CLÉROUX/GUÉNETTE,-73.786892,45.556671
46586,CLÉROUX/LAMONTAGNE,-73.790544,45.555594
46587,CLÉROUX/BUTEAU,-73.793161,45.554826
46588,DE CELLES/CUVILLIER,-73.794521,45.553448
46589,CHERRIER/CLÉROUX,-73.796479,45.552969
46590,TERMINUS CLÉROUX,-73.800483,45.55077
46591,CHOM/FACE AU 421,-73.734175,45.539478
46592,CURÉ-LABELLE/FACE AU 3200,-73.781164,45.568006
46593,DUFFERIN/JACQUES-CARTIER,-73.78246,45.62775
46594,R.-B./FACE AU 4300,-73.68682,45.612735
46595,R.-B./FACE AU 4300,-73.686618,45.612556
46596,DE LA RENAISSANCE/CURÉ-LABELLE,-73.79016,45.601829
46598,FACE AU ADONIS,-73.683265,45.614141
46599,FACE AU ADONIS,-73.683368,45.613849
46600,DAGENAIS/LE CORBUSIER,-73.75903,45.592277
46601,MICHELIN/LE CORBUSIER,-73.752831,45.586864
46602,SAINT-ELZÉAR/LE CORBUSIER,-73.750771,45.583368
46603,CHOMEDEY/FACE AU 1515,-73.746377,45.552043
46604,SAINTE-ROSE/15E,-73.85878,45.562731
46605,SAINTE-ROSE/15E,-73.858877,45.562528
46606,NOTRE-DAME/MONTGOLFIER,-73.78126,45.531849
46607,NOTRE-DAME/100E,-73.764871,45.536498
46608,ROBIN/7E,-73.694587,45.561589
46609,7E/8E,-73.692903,45.561533
46610,8E/CARTIER,-73.692854,45.559266
46611,7E/8E,-73.693185,45.561662
46612,7E/ROBIN,-73.694446,45.561684
46614,MASSON/GUÉNARD,-73.627199,45.679868
46615,MASSON/GUÉNARD,-73.626969,45.679723
46616,HENRI-BOURASSA/DE L'ACADIE,-73.68063,45.53512
46617,HENRI-BOURASSA/DE L'ACADIE,-73.68126,45.533345
46618,YVON-BERGER/CURÉ-LABELLE,-73.787422,45.59136
46619,CURÉ-LABELLE/FACE AU 357,-73.787494,45.593586
46620,CURÉ-LABELLE/FACE AU 338,-73.787311,45.594452
46621,LÉVESQUE/DE SABREVOIS,-73.670442,45.577073
46622,DU PARC-DES-ÉRABLES/FACE AU 88,-73.767698,45.637375
46623,DU PARC-DES-ÉRABLES/FACE AU 229,-73.767914,45.637515
46625,CONCORDE/CORBUSIER,-73.72266,45.554376
46626,ROBIN/5E,-73.696162,45.560721
46627,ROBIN/12E,-73.696215,45.561025
46628,PIE-IX/D'AMOS,-73.641471,45.594628
46629,PIE-IX/D'AMOS,-73.640819,45.594405
46630,HENRI-BOURASSA/DE MARTIGNY,-73.655641,45.575633
46631,HENRI-BOURASSA/DES PRAIRIES,-73.655944,45.574475
46632,CHARTRAND/FACE AU MAXI,-73.575489,45.667951
46633,CHOMEDEY/FACE AU MAXI,-73.750273,45.554858
46634,PLACE PAUL-KANE,-73.65144,45.634439
46635,GARE VIMONT,-73.742832,45.604221
46636,DU PARC/LÉONARD,-73.657148,45.600746
46637,DU PARC/LÉONARD,-73.656944,45.600759
46638,LES ÉRABLES/FACE AU 1200,-73.878662,45.534086
46639,LES ÉRABLES/FACE AU 1200,-73.878971,45.533821
46640,SAINT-ANTOINE/LES ÉRABLES,-73.878009,45.535772
46641,SAINT-ANTOINE/LES ÉRABLES,-73.87774,45.53558
46643,MONTGOLFIER/SAINT-MARTIN,-73.788644,45.541498
46644,STRUCTUBE-MAGASIN,-73.801438,45.54615
46645,CHOMEDEY (A-13)/STRUCTUBE,-73.803234,45.545833
46646,CHOMEDEY (A-13)/STRUCTUBE,-73.803138,45.545509
46647,CHOMEDEY (A-13)/STRUCTUBE - MAGASIN,-73.80153,45.545927
46648,N.DAME/MONTGOLFIER,-73.779972,45.531843
46649,GABRIEL/CURÉ-LABELLE,-73.789934,45.58254
46650,DAGENAIS/FACE 4356,-73.841407,45.557792
46651,DAGENAIS/FACE 4356,-73.841687,45.557873
46652,ST-MARTIN/LOUIS-B.,-73.772287,45.547529
47002,METRO CARTIER,-73.682502,45.559923
47012,METRO CARTIER,-73.682402,45.559938
47017,METRO CARTIER,-73.682502,45.559923
47020,METRO CARTIER,-73.68279,45.559744
47022,METRO CARTIER,-73.682595,45.559844
47024,METRO CARTIER,-73.68279,45.559744
47027,METRO CARTIER,-73.68289,45.559732
47031,METRO CARTIER,-73.682502,45.559923
47033,METRO CARTIER,-73.682982,45.559648
47037,METRO CARTIER,-73.682982,45.559648
47041,METRO CARTIER,-73.68289,45.559732
47043,METRO CARTIER,-73.68289,45.559732
47048,METRO CARTIER,-73.682595,45.559844
47058,METRO CARTIER,-73.682402,45.559938
47060,METRO CARTIER,-73.683153,45.559524
47063,METRO CARTIER,-73.682982,45.559648
47070,METRO CARTIER,-73.682402,45.559938
47073,METRO CARTIER,-73.682701,45.559824
47074,METRO CARTIER,-73.682701,45.559824
47102,METRO CARTIER,-73.682502,45.559923
47112,METRO CARTIER,-73.682496,45.559958
47117,METRO CARTIER,-73.6824,45.560041
47120,METRO CARTIER,-73.682381,45.560047
47122,MÉTRO CARTIER,-73.682378,45.560039
47124,METRO CARTIER,-73.682376,45.56005
47127,METRO CARTIER,-73.682384,45.560034
47128,METRO CARTIER,-73.682365,45.560042
47131,METRO CARTIER,-73.683082,45.559638
47133,METRO CARTIER,-73.682349,45.560051
47137,METRO CARTIER,-73.68243,45.560023
47141,METRO CARTIER,-73.682407,45.560027
47143,METRO CARTIER,-73.6824,45.560016
47148,METRO CARTIER,-73.682497,45.559958
47158,METRO CARTIER,-73.682497,45.559958
47160,METRO CARTIER,-73.682497,45.559958
47163,METRO CARTIER,-73.682497,45.559958
47170,METRO CARTIER,-73.682497,45.559958
47173,METRO CARTIER,-73.682497,45.559958
47174,METRO CARTIER,-73.682497,45.559958
47222,METRO CARTIER,-73.682595,45.559844
47901,METRO CARTIER,-73.683153,45.559524
47911,METRO CARTIER,-73.682497,45.559958
48002,METRO MONTMORENCY,-73.720829,45.557936
48026,METRO MONTMORENCY,-73.720829,45.557936
48033,METRO MONTMORENCY,-73.720135,45.558146
48036,METRO MONTMORENCY,-73.720623,45.558472
48039,METRO MONTMORENCY,-73.720437,45.558562
48040,METRO MONTMORENCY,-73.719915,45.558245
48045,METRO MONTMORENCY,-73.719915,45.558245
48046,METRO MONTMORENCY,-73.720359,45.558041
48050,METRO MONTMORENCY,-73.720437,45.558562
48056,METRO MONTMORENCY,-73.720359,45.558041
48061,METRO MONTMORENCY,-73.720135,45.558146
48065,METRO MONTMORENCY,-73.720135,45.558146
48070,METRO MONTMORENCY,-73.720829,45.557936
48076,METRO MONTMORENCY,-73.719915,45.558245
48102,METRO MONTMORENCY,-73.721028,45.558277
48126,METRO MONTMORENCY,-73.721029,45.558278
48133,METRO MONTMORENCY,-73.721028,45.558278
48136,METRO MONTMORENCY,-73.721036,45.558278
48139,METRO MONTMORENCY,-73.720623,45.558472
48140,METRO MONTMORENCY,-73.721029,45.558276
48145,METRO MONTMORENCY,-73.72103,45.558277
48148,METRO MONTMORENCY,-73.721028,45.558278
48150,METRO MONTMORENCY,-73.720623,45.558472
48156,METRO MONTMORENCY,-73.721028,45.558278
48161,METRO MONTMORENCY,-73.721028,45.558275
48165,METRO MONTMORENCY,-73.721031,45.558278
48170,METRO MONTMORENCY,-73.721028,45.558279
48176,METRO MONTMORENCY,-73.721035,45.558282
48842,MÉTRO MONTMORENCY,-73.721031,45.558279
48903,METRO MONTMORENCY,-73.720359,45.558041
48913,METRO MONTMORENCY,-73.721029,45.558281
48942,MÉTRO MONTMORENCY,-73.719915,45.558245
49012,J.-DESNOYERS/FACE AU 520,-73.672009,45.565139
49017,TERMINUS BIENVILLE,-73.749692,45.657838
49022,TERMINUS CONTANT,-73.636057,45.687501
49026,GARE S. DOROTHEE,-73.861188,45.523389
49027,GARE VIMONT,-73.742731,45.604116
49039,TERMINUS BIENVILLE,-73.749692,45.657828
49040,MONTGOLFIER/N. DAME,-73.78098,45.532601
49050,S. FRANCOIS/PENITENCIER,-73.646308,45.618382
49052,TERMINUS CONTANT,-73.63605,45.687491
49058,S. FRANCOIS/PENITENCIER,-73.646308,45.618373
49060,A.-GOLDBLOOM/HOPITAL,-73.736978,45.54843
49063,GARE S. ROSE,-73.765828,45.625788
49065,GARE S. ROSE,-73.765708,45.625626
49074,TERMINUS CONTANT,-73.636063,45.687491
49076,GARE S. DOROTHEE,-73.861188,45.523389
49145,BIENVILLE/TERMINUS,-73.749694,45.657824
49151,CP DUFFERIN,-73.782819,45.628653
49402,GARE S. DOROTHEE,-73.861188,45.523389
49901,GALERIES MOULIN,-73.583004,45.677063
49903,GARE S. DOROTHEE,-73.861188,45.523389
